[
{ "lng":   4.410845   , "lat": 44.968797, "name":"Beauvert International Astronomical Observatory"},
{ "lng":   4.335241   , "lat": 45.007116, "name":"Observatoire Hubert Reeves, Mars"},
{ "lng":   0.0000   , "lat": 51.477379, "name":"Greenwich"},
{ "lng":   0.1542   , "lat": 51.051835, "name":"Crowborough"},
{ "lng":   0.62     , "lat": 51.652979, "name":"Rayleigh"},
{ "lng":   3.90     , "lat": 43.650525, "name":"Montpellier"},
{ "lng":   1.4625   , "lat": 43.612279, "name":"Toulouse"},
{ "lng":   2.23100  , "lat": 48.805069, "name":"Meudon"},
{ "lng":   2.12417  , "lat": 41.418524, "name":"Fabra Observatory, Barcelona"},
{ "lng":   2.33675  , "lat": 48.836384, "name":"Paris"},
{ "lng":   3.0355   , "lat": 36.801463, "name":"Algiers-Bouzareah"},
{ "lng":   7.4417   , "lat": 46.953793, "name":"Berne-Uecht"},
{ "lng":   6.92124  , "lat": 43.750945, "name":"Caussols"},
{ "lng":   8.7975   , "lat": 47.319327, "name":"Wetzikon"},
{ "lng":   4.35821  , "lat": 50.798599, "name":"Uccle"},
{ "lng":   4.48397  , "lat": 52.154947, "name":"Leiden"},
{ "lng":   5.39509  , "lat": 43.305869, "name":"Marseilles"},
{ "lng":   5.12929  , "lat": 52.085463, "name":"Utrecht"},
{ "lng":   5.9893   , "lat": 47.250002, "name":"Besancon"},
{ "lng":   6.84924  , "lat": 50.161388, "name":"Hoher List"},
{ "lng":   6.7612   , "lat": 51.206991, "name":"Dusseldorf-Bilk"},
{ "lng":   6.9575   , "lat": 46.997440, "name":"Neuchatel"},
{ "lng":   7.3004   , "lat": 43.721542, "name":"Nice"},
{ "lng":   8.3855   , "lat": 49.024024, "name":"Karlsruhe"},
{ "lng":   7.7748   , "lat": 45.037805, "name":"Pino Torinese"},
{ "lng":   8.2625   , "lat": 50.081187, "name":"Wiesbaden"},
{ "lng":   8.7216   , "lat": 49.398618, "name":"Heidelberg-Konigstuhl"},
{ "lng":   9.19650  , "lat": 48.782528, "name":"Stuttgart"},
{ "lng":   7.46511  , "lat": 46.877102, "name":"Berne-Zimmerwald"},
{ "lng":   9.1912   , "lat": 45.466337, "name":"Milan"},
{ "lng":   9.9363   , "lat": 49.791035, "name":"Wurzburg"},
{ "lng":  10.2406   , "lat": 53.479709, "name":"Hamburg-Bergedorf"},
{ "lng":  11.25446  , "lat": 43.750648, "name":"Arcetri Observatory, Florence"},
{ "lng":  11.18985  , "lat": 50.377394, "name":"Sonneberg"},
{ "lng":  11.58295  , "lat": 50.925259, "name":"Jena"},
{ "lng":  11.71124  , "lat": 50.980142, "name":"Karl Schwarzschild Observatory, Tautenburg"},
{ "lng":  12.45246  , "lat": 41.922451, "name":"Monte Mario Observatory, Rome"},
{ "lng":  12.57592  , "lat": 55.686868, "name":"Copenhagen"},
{ "lng":  12.65040  , "lat": 41.747469, "name":"Castel Gandolfo"},
{ "lng":  13.7333   , "lat": 42.657470, "name":"Collurania Observatory, Teramo"},
{ "lng":  13.7704   , "lat": 45.643273, "name":"Trieste"},
{ "lng":  13.1874   , "lat": 55.697864, "name":"Lund"},
{ "lng":  13.7298   , "lat": 51.031147, "name":"Lohrmann Institute, Dresden"},
{ "lng":  11.38083  , "lat": 47.268155, "name":"Innsbruck"},
{ "lng":  13.06428  , "lat": 52.379654, "name":"Potsdam"},
{ "lng":  11.52643  , "lat": 45.866447, "name":"Asiago Astrophysical Observatory, Padua"},
{ "lng":  14.2559   , "lat": 40.862941, "name":"Capodimonte Observatory, Naples"},
{ "lng":  16.3390   , "lat": 48.231915, "name":"Vienna (since 1879)"},
{ "lng":  14.2881   , "lat": 48.863293, "name":"Klet Observatory, Ceske Budejovice"},
{ "lng":  16.8782   , "lat": 52.398536, "name":"Poznan"},
{ "lng":  15.84080  , "lat": 50.177332, "name":"Hradec Kralove"},
{ "lng":  17.6067   , "lat": 59.500336, "name":"Uppsala-Kvistaberg"},
{ "lng":  18.0582   , "lat": 59.342247, "name":"Stockholm (before 1931)"},
{ "lng":  18.4766   , "lat":-33.933947, "name":"Royal Observatory, Cape of Good Hope"},
{ "lng":  18.3083   , "lat": 59.271649, "name":"Stockholm-Saltsjobaden"},
{ "lng":  18.9642   , "lat": 47.499604, "name":"Konkoly Observatory, Budapest (since 1933)"},
{ "lng":  11.6654   , "lat": 55.621918, "name":"Brorfelde"},
{ "lng":  19.9596   , "lat": 50.064521, "name":"Cracow"},
{ "lng":  20.23418  , "lat": 49.189565, "name":"Skalnate Pleso"},
{ "lng":  20.5133   , "lat": 44.803652, "name":"Belgrade"},
{ "lng":  20.4950   , "lat": 54.712819, "name":"Kaliningrad"},
{ "lng":  20.2201   , "lat": 49.195978, "name":"Lomnicky Stit"},
{ "lng":  21.4200   , "lat": 52.090014, "name":"Warsaw-Ostrowik"},
{ "lng":  22.29850  , "lat": 48.633469, "name":"Uzhhorod"},
{ "lng":  22.2293   , "lat": 60.452429, "name":"Turku"},
{ "lng":  22.4450   , "lat": 60.415790, "name":"Turku-Tuorla"},
{ "lng":  22.7500   , "lat": 60.420405, "name":"Turku-Kevola"},
{ "lng":  12.6318   , "lat": 47.862150, "name":"Traunstein"},
{ "lng":  23.71817  , "lat": 37.972271, "name":"Athens"},
{ "lng":  24.0297   , "lat": 49.832821, "name":"Lviv University Observatory"},
{ "lng":  24.0142   , "lat": 49.836492, "name":"Lviv Polytechnic Institute"},
{ "lng":  24.4042   , "lat": 56.773119, "name":"Baldone"},
{ "lng":  25.2865   , "lat": 54.683110, "name":"Vilnius (before 1939)"},
{ "lng":  24.73782  , "lat": 41.693123, "name":"NAO Rozhen, Smolyan"},
{ "lng":   7.17     , "lat": 51.088915, "name":"Scheuren Observatory"},
{ "lng":  26.09391  , "lat": 44.411996, "name":"Bucharest"},
{ "lng":  26.4058   , "lat":-29.038138, "name":"Boyden Observatory, Bloemfontein"},
{ "lng":  26.7216   , "lat": 58.379715, "name":"Tartu"},
{ "lng":  27.8768   , "lat":-25.772770, "name":"Johannesburg-Hartbeespoort"},
{ "lng":  28.0292   , "lat":-26.187261, "name":"Yale-Columbia Station, Johannesburg"},
{ "lng":  28.0750   , "lat":-26.181859, "name":"Johannesburg"},
{ "lng":  28.2288   , "lat":-25.787998, "name":"Radcliffe Observatory, Pretoria"},
{ "lng":  28.9667   , "lat": 41.012704, "name":"Istanbul"},
{ "lng":  27.8768   , "lat":-25.772770, "name":"Leiden Station, Johannesburg"},
{ "lng":  15.7561   , "lat": 48.087978, "name":"St. Polten"},
{ "lng":  30.5056   , "lat": 50.365008, "name":"Holosiivskyi district-Kyiv"},
{ "lng":  30.3274   , "lat": 59.772118, "name":"Pulkovo"},
{ "lng":  30.5023   , "lat": 50.452956, "name":"Kyiv"},
{ "lng":  30.7582   , "lat": 46.476827, "name":"Odesa"},
{ "lng":  31.3411   , "lat": 29.858775, "name":"Helwan"},
{ "lng":  31.82769  , "lat": 29.934013, "name":"Kottomia"},
{ "lng":  31.9747   , "lat": 46.971605, "name":"Mykolaiv"},
{ "lng":   8.25     , "lat": 49.943154, "name":"Mainz"},
{ "lng":   4.20919  , "lat": 45.381384, "name":"Observatoire de Nurol, Aurec sur Loire"},
{ "lng":  18.5546   , "lat": 53.096304, "name":"Torun-Piwnice"},
{ "lng":  20.3647   , "lat": 69.349331, "name":"Skibotn"},
{ "lng":  33.9974   , "lat": 44.403089, "name":"Crimea-Simeiz"},
{ "lng":  34.0160   , "lat": 44.726558, "name":"Crimea-Nauchnyi"},
{ "lng":   9.4283   , "lat": 45.698835, "name":"Merate"},
{ "lng":  34.7625   , "lat": 30.595660, "name":"Wise Observatory, Mitzpeh Ramon"},
{ "lng":  11.56900  , "lat": 45.848591, "name":"Asiago Observatory, Cima Ekar"},
{ "lng":  25.53529  , "lat": 61.130238, "name":"Lahti"},
{ "lng":  24.14145  , "lat": 62.617163, "name":"Ahtari"},
{ "lng":  36.2322   , "lat": 50.002702, "name":"Kharkiv"},
{ "lng":  36.75953  , "lat": 55.699517, "name":"Zvenigorod"},
{ "lng":  14.52774  , "lat": 46.043781, "name":"Ljubljana"},
{ "lng":  10.80375  , "lat": 44.064181, "name":"San Marcello Pistoiese"},
{ "lng":  37.5706   , "lat": 55.755715, "name":"Moscow"},
{ "lng":  14.0711   , "lat": 45.945908, "name":"Crni Vrh"},
{ "lng":  11.0030   , "lat": 44.862896, "name":"Cavezzo"},
{ "lng":  11.0278   , "lat": 43.738117, "name":"Montelupo"},
{ "lng":   3.0705   , "lat": 36.733068, "name":"Algiers-Kouba"},
{ "lng":  39.4150   , "lat": 57.189178, "name":"Rostov"},
{ "lng":  10.9721   , "lat": 43.678850, "name":"Piazzano Observatory, Florence"},
{ "lng":  10.9039   , "lat": 45.483789, "name":"Pleiade Observatory, Verona"},
{ "lng":  13.0166   , "lat": 50.676689, "name":"Volkssternwarte Drebach, Schoenbrunn"},
{ "lng":  41.4277   , "lat": 43.655713, "name":"Engelhardt Observatory, Zelenchukskaya Station"},
{ "lng":  41.44067  , "lat": 43.646713, "name":"Zelenchukskaya"},
{ "lng":  11.5958   , "lat": 48.115221, "name":"Giesing"},
{ "lng":  11.5385   , "lat": 48.112747, "name":"Sendling"},
{ "lng":  17.2740   , "lat": 48.373144, "name":"Astronomical and Geophysical Observatory, Modra"},
{ "lng":  42.8200   , "lat": 41.753627, "name":"Abastuman"},
{ "lng":  13.7261   , "lat": 45.277637, "name":"Visnjan"},
{ "lng":  36.93403  , "lat": 49.640838, "name":"Kharkiv University, Chuhuivskyi district Station"},
{ "lng":   3.5035   , "lat": 44.039542, "name":"Pises Observatory"},
{ "lng":  44.2917   , "lat": 40.335211, "name":"Byurakan"},
{ "lng":   2.2550   , "lat": 43.600501, "name":"Castres"},
{ "lng":  44.78950  , "lat": 41.717322, "name":"Tbilisi"},
{ "lng":   9.79015  , "lat": 44.132567, "name":"Monte Viseggi L. Zannoni Observatory"},
{ "lng":   6.9797   , "lat": 50.760191, "name":"Bornheim"},
{ "lng":  46.00661  , "lat": 51.538322, "name":"Saratov"},
{ "lng":  45.92     , "lat": 39.134625, "name":"Ordubad"},
{ "lng":  10.23963  , "lat": 45.665020, "name":"Lumezzane"},
{ "lng":   4.725    , "lat": 44.677036, "name":"Observatoire de l'Ardeche"},
{ "lng":   5.2461   , "lat": 44.113303, "name":"Bedoin"},
{ "lng":   5.0906   , "lat": 43.361706, "name":"Les Tardieux"},
{ "lng":  11.48245  , "lat": 50.928437, "name":"Groszschwabhausen"},
{ "lng":  49.1210   , "lat": 55.789708, "name":"Kasan"},
{ "lng":  48.8156   , "lat": 55.839125, "name":"Engelhardt Observatory, Kasan"},
{ "lng":  34.8147   , "lat": 32.069775, "name":"Givatayim Observatory"},
{ "lng":   7.5717   , "lat": 47.604863, "name":"Village-Neuf"},
{ "lng":   7.1108   , "lat": 43.606163, "name":"Antibes"},
{ "lng":   3.6294   , "lat": 45.718290, "name":"Augerolles"},
{ "lng":   7.3672   , "lat": 49.067017, "name":"Hottviller"},
{ "lng":   7.1874   , "lat": 51.663869, "name":"Sinsen"},
{ "lng":   9.02406  , "lat": 46.231419, "name":"Gnosca"},
{ "lng":   1.6660   , "lat": 49.138729, "name":"Bray et Lu"},
{ "lng":   4.5597   , "lat": 51.240029, "name":"'s-Gravenwezel"},
{ "lng":  10.6673   , "lat": 44.288328, "name":"Frignano"},
{ "lng":   8.57391  , "lat": 45.637244, "name":"Osservatorio Astronomico di Suno"},
{ "lng":   2.0375   , "lat": 43.644347, "name":"Guitalens"},
{ "lng":   4.2236   , "lat": 49.250078, "name":"Beine-Nauroy"},
{ "lng":   2.1572   , "lat": 48.943583, "name":"Maisons Laffitte"},
{ "lng":   8.7440   , "lat": 47.476030, "name":"Eschenberg Observatory, Winterthur"},
{ "lng":  25.5633   , "lat": 55.316042, "name":"Moletai Astronomical Observatory"},
{ "lng":   9.1747   , "lat": 48.738079, "name":"Stuttgart-Hoffeld"},
{ "lng":  12.1043   , "lat": 46.542158, "name":"Cortina"},
{ "lng":  10.1971   , "lat": 56.127647, "name":"Ole Romer Observatory, Aarhus"},
{ "lng":  15.0858   , "lat": 37.503415, "name":"Catania Astrophysical Observatory"},
{ "lng":  12.8117   , "lat": 42.227537, "name":"Frasso Sabino"},
{ "lng":   7.6033   , "lat": 45.785535, "name":"Promiod"},
{ "lng":  10.5153   , "lat": 43.995223, "name":"Monte Agliale"},
{ "lng":  10.84144  , "lat": 43.823061, "name":"Castelmartini"},
{ "lng":   8.1605   , "lat": 45.087720, "name":"Cerrina Tololo Observatory"},
{ "lng":  15.7805   , "lat": 40.650008, "name":"Potenza"},
{ "lng":   6.1492   , "lat": 49.543169, "name":"Roeser Observatory, Luxembourg"},
{ "lng":   6.8861   , "lat": 48.315558, "name":"St. Michel sur Meurthe"},
{ "lng":   1.7553   , "lat": 41.521506, "name":"Piera Observatory, Barcelona"},
{ "lng":  16.0117   , "lat": 50.506901, "name":"Upice"},
{ "lng":   8.5727   , "lat": 47.520289, "name":"Bulach Observatory"},
{ "lng":  59.5472   , "lat": 57.036807, "name":"Kourovskaya"},
{ "lng":   8.4016   , "lat": 45.077171, "name":"Airali Observatory"},
{ "lng":   1.9206   , "lat": 41.331805, "name":"Observatorio de Begues"},
{ "lng":  14.4697   , "lat": 35.909942, "name":"Flarestar Observatory, San Gwann"},
{ "lng":   7.0364   , "lat": 46.793619, "name":"Onnens"},
{ "lng":  55.5061   , "lat":-20.897572, "name":"St. Clotilde, Reunion"},
{ "lng":  25.5131   , "lat": 62.346623, "name":"Nyrola Observatory, Jyvaskyla"},
{ "lng":   7.6083   , "lat": 46.230887, "name":"F.-X. Bagnoud Observatory, St-Luc"},
{ "lng":   2.8225   , "lat": 39.653687, "name":"Observatorio Astronomico de Consell"},
{ "lng":   3.9414   , "lat": 43.646763, "name":"Le Cres"},
{ "lng":   6.1344   , "lat": 46.134629, "name":"Collonges"},
{ "lng":   9.0175   , "lat": 45.927927, "name":"Monte Generoso"},
{ "lng":   3.9519   , "lat": 43.568393, "name":"Mauguio"},
{ "lng":  55.4100   , "lat":-21.199551, "name":"Observatoire des Makes, Saint-Louis"},
{ "lng":  55.2586   , "lat":-21.012592, "name":"St. Paul, Reunion"},
{ "lng":  41.4200   , "lat": 43.650034, "name":"Starlab Observatory, Karachay-Cherkessia"},
{ "lng":   6.0361   , "lat": 43.981412, "name":"Valmeca Observatory, Puimichel"},
{ "lng":   7.4219   , "lat": 47.353048, "name":"Observatoire Astronomique Jurassien-Vicques"},
{ "lng":  66.8821   , "lat": 39.133773, "name":"Kitab"},
{ "lng":  17.0733   , "lat": 52.277129, "name":"Astronomical Observatory, Borowiec"},
{ "lng":  66.89555  , "lat": 38.673365, "name":"Majdanak"},
{ "lng":   6.1514   , "lat": 46.199977, "name":"Geneva (before 1967)"},
{ "lng":  68.6819   , "lat": 38.490299, "name":"Gissar"},
{ "lng":  68.7811   , "lat": 38.561092, "name":"Dushanbe"},
{ "lng":  69.2936   , "lat": 41.325129, "name":"Tashkent"},
{ "lng":  69.2178   , "lat": 38.260781, "name":"Sanglok"},
{ "lng":  18.0094   , "lat":-23.461596, "name":"Tivoli"},
{ "lng":  11.4492   , "lat": 48.183860, "name":"Untermenzing Observatory, Munich"},
{ "lng":   7.3331   , "lat": 49.331752, "name":"Homburg-Erbach"},
{ "lng":  12.1836   , "lat": 44.256931, "name":"Bastia"},
{ "lng":   8.75674  , "lat": 48.631946, "name":"Wildberg"},
{ "lng":   2.4380   , "lat": 48.291739, "name":"Telescope Jean-Marc Salomon, Buthiers"},
{ "lng":   4.3036   , "lat": 50.760191, "name":"Beersel Hills Observatory"},
{ "lng":   7.6033   , "lat": 45.785135, "name":"Jonathan B. Postel Observatory"},
{ "lng":   5.8997   , "lat": 43.095279, "name":"Tamaris Observatoire, La Seyne sur Mer"},
{ "lng":   8.99548  , "lat": 45.541445, "name":"GiaGa Observatory"},
{ "lng":   8.76972  , "lat": 45.868295, "name":"Schiaparelli Observatory"},
{ "lng":  11.2731   , "lat": 44.472064, "name":"Obs. Casalecchio di Reno, Bologna"},
{ "lng":  10.5667   , "lat": 60.600925, "name":"Haagaar Observatory, Eina"},
{ "lng":   9.3065   , "lat": 45.545063, "name":"Osservatorio Antonio Grosso"},
{ "lng":   9.5875   , "lat": 44.949339, "name":"Rivalta"},
{ "lng":  11.56883  , "lat": 45.849484, "name":"Asiago Observatory, Cima Ekar-ADAS"},
{ "lng":  76.9573   , "lat": 43.188278, "name":"Alma-Ata"},
{ "lng":  11.1764   , "lat": 43.762483, "name":"Scandicci"},
{ "lng": 355.35747  , "lat": 36.653332, "name":"Observatorio La Dehesilla"},
{ "lng":   2.38539  , "lat": 41.519715, "name":"Observatorio Montcabre"},
{ "lng":  11.6569   , "lat": 48.256592, "name":"Garching Observatory"},
{ "lng":  10.7328   , "lat": 48.017293, "name":"Buchloe"},
{ "lng":   5.6914   , "lat": 49.001576, "name":"Observatoire des Cote de Meuse"},
{ "lng":  77.87114  , "lat": 43.225527, "name":"Assah"},
{ "lng":  78.4541   , "lat": 17.431847, "name":"Hyderabad"},
{ "lng":  78.7283   , "lat": 17.098328, "name":"Japal-Rangapur"},
{ "lng":  78.8263   , "lat": 12.576280, "name":"Vainu Bappu Observatory, Kavalur"},
{ "lng":  16.36170  , "lat":-23.236369, "name":"IAS Observatory, Hakos"},
{ "lng":   2.4939   , "lat": 48.709856, "name":"Yerres-Canotiers"},
{ "lng":  80.2464   , "lat": 13.068995, "name":"Madras"},
{ "lng":   7.50171  , "lat": 47.784762, "name":"Ottmarsheim"},
{ "lng": 288.8250   , "lat": 43.227708, "name":"Northwood Ridge Observatory"},
{ "lng":  11.8858   , "lat": 45.433882, "name":"Guido Ruggieri Observatory, Padua"},
{ "lng": 281.2853   , "lat": 42.638389, "name":"OrbitJet Observatory, Colden"},
{ "lng":  13.8750   , "lat": 45.642425, "name":"Bruno Zugna Observatory, Trieste"},
{ "lng":  14.9743   , "lat": 40.690815, "name":"G. C. Gloriosi Astronomical Observatory, Salerno"},
{ "lng":  12.0133   , "lat": 47.704038, "name":"Mt. Wendelstein Observatory"},
{ "lng":   5.3983   , "lat": 50.005282, "name":"Vesqueville"},
{ "lng":   1.3317   , "lat": 41.508536, "name":"Masquefa Observatory"},
{ "lng":  10.5403   , "lat": 43.855044, "name":"Sauro Donati Astronomical Observatory, San Vito"},
{ "lng":   1.12833  , "lat": 52.145254, "name":"Coddenham Observatory"},
{ "lng":  13.11352  , "lat": 45.936027, "name":"CAST Observatory, Talmassons"},
{ "lng":  84.9465   , "lat": 56.468260, "name":"Tomsk"},
{ "lng":   2.7333   , "lat": 47.083528, "name":"Baugy"},
{ "lng":  10.9094   , "lat": 59.949148, "name":"Grorudalen Optical Observatory"},
{ "lng":   8.4114   , "lat": 49.925391, "name":"Trebur"},
{ "lng":   8.83317  , "lat": 48.623595, "name":"Herrenberg Sternwarte"},
{ "lng":  13.4700   , "lat": 48.443494, "name":"Schaerding"},
{ "lng":   1.6956   , "lat": 43.479120, "name":"Varennes"},
{ "lng":   9.4130   , "lat": 53.528078, "name":"Umbrella Observatory, Fredenbeck"},
{ "lng":   0.00000  , "lat":  0.000000, "name":"Geocentric Occultation Observation"},
{ "lng":   0.000000 , "lat":  0.000000, "name":"Spitzer Space Telescope"},
{ "lng":  14.28476  , "lat": 48.863994, "name":"Klet Observatory-KLENOT"},
{ "lng":   0.000000 , "lat":  0.000000, "name":"Roving Observer"},
{ "lng":   0.00000  , "lat":  0.000000, "name":"Hipparcos"},
{ "lng":   0.000000 , "lat":  0.000000, "name":"SOHO"},
{ "lng":   0.000000 , "lat":  0.000000, "name":"Hubble Space Telescope"},
{ "lng": 293.24692  , "lat": 18.343444, "name":"Arecibo"},
{ "lng": 243.20512  , "lat": 35.247200, "name":"Goldstone DSS 13, Fort Irwin"},
{ "lng": 243.11047  , "lat": 35.425917, "name":"Goldstone DSS 14, Fort Irwin"},
{ "lng": 288.51128  , "lat": 42.623198, "name":"Haystack, Westford"},
{ "lng":  33.18689  , "lat": 45.189218, "name":"Yevpatoriya"},
{ "lng": 280.16017  , "lat": 38.433112, "name":"Green Bank"},
{ "lng": 243.12461  , "lat": 35.337575, "name":"Goldstone DSS 25, Fort Irwin"},
{ "lng":   0.000000 , "lat":  0.000000, "name":"Gaia"},
{ "lng":  19.22586  , "lat": 69.586488, "name":"EISCAT Tromso UHF"},
{ "lng": 149.0661   , "lat":-31.276809, "name":"Siding Spring Observatory-DSS"},
{ "lng": 243.14022  , "lat": 33.357340, "name":"Palomar Mountain-DSS"},
{ "lng": 289.26626  , "lat":-29.258822, "name":"European Southern Observatory, La Silla-DSS"},
{ "lng": 148.98145  , "lat":-35.395795, "name":"Canberra DSS 35"},
{ "lng": 148.97854  , "lat":-35.395080, "name":"Canberra DSS 36"},
{ "lng": 148.98126  , "lat":-35.402430, "name":"Canberra DSS 43"},
{ "lng": 204.52396  , "lat": 19.825501, "name":"New Horizons KBO Search-Subaru"},
{ "lng": 204.53109  , "lat": 19.825438, "name":"New Horizons KBO Search-CFHT"},
{ "lng": 289.30803  , "lat":-29.014271, "name":"Magellan-Clay Telescope"},
{ "lng": 289.30914  , "lat":-29.014791, "name":"Magellan-Baade Telescope"},
{ "lng":   0.000000 , "lat":  0.000000, "name":"Unistellar Network, Roving Observer"},
{ "lng": 149.55013  , "lat":-30.312905, "name":"ATCA DSS 47"},
{ "lng":   0.000000 , "lat":  0.000000, "name":"Euclid"},
{ "lng":   0.000000 , "lat":  0.000000, "name":"James Webb Space Telescope"},
{ "lng":   0.000000 , "lat":  0.000000, "name":"Non-geocentric Occultation Observation"},
{ "lng":  20.38279  , "lat": 52.627454, "name":"Plonsk"},
{ "lng": 356.8175   , "lat": 55.924922, "name":"Royal Observatory, Blackford Hill, Edinburgh"},
{ "lng": 116.4494   , "lat": 39.904051, "name":"Peking, Transit of Venus site"},
{ "lng":  10.72822  , "lat": 50.933993, "name":"Seeberg Observatory, Gotha (1787-1857)"},
{ "lng":   8.9118   , "lat": 53.140662, "name":"Lilienthal"},
{ "lng":  11.3522   , "lat": 44.496414, "name":"Bologna"},
{ "lng":   4.3603   , "lat": 43.839623, "name":"Nimes"},
{ "lng":   8.8163   , "lat": 53.076358, "name":"Bremen"},
{ "lng":  15.8311   , "lat": 52.838165, "name":"Driesen"},
{ "lng":   2.3708   , "lat": 48.693563, "name":"Flammarion Observatory, Juvisy"},
{ "lng": 102.7883   , "lat": 25.025449, "name":"Yunnan Observatory"},
{ "lng":   0.000000 , "lat":  0.000000, "name":"SPHEREx"},
{ "lng":   0.000000 , "lat":  0.000000, "name":"Nancy Grace Roman Space Telescope"},
{ "lng": 250.10799  , "lat": 32.701295, "name":"Mt. Graham-VATT"},
{ "lng": 248.40024  , "lat": 31.961598, "name":"LPL/Spacewatch II"},
{ "lng": 285.1058   , "lat": 40.072036, "name":"Burlington, New Jersey"},
{ "lng": 285.5899   , "lat": 39.798433, "name":"Burlington remote site"},
{ "lng": 285.8467   , "lat": 40.603851, "name":"Astrophysical Obs., College of Staten Island"},
{ "lng": 283.0000   , "lat": 38.936501, "name":"Catholic University Observatory, Washington"},
{ "lng": 286.2200   , "lat": 42.653670, "name":"Dudley Observatory, Albany (after 1893)"},
{ "lng": 286.819    , "lat": 44.015373, "name":"Middlebury"},
{ "lng": 287.3408   , "lat": 41.555172, "name":"Van Vleck Observatory"},
{ "lng": 107.6160   , "lat": -6.825509, "name":"Bosscha Observatory, Lembang"},
{ "lng": 133.54444  , "lat": 34.671960, "name":"Bisei Spaceguard Center-BATTeRS"},
{ "lng": 288.8467   , "lat": 45.454905, "name":"Mont Megantic"},
{ "lng": 288.88     , "lat":  8.672755, "name":"University of the Andes station"},
{ "lng": 289.1296   , "lat":  8.787722, "name":"OAN de Llano del Hato, Merida"},
{ "lng": 289.30858  , "lat":-29.014556, "name":"Las Campanas Observatory"},
{ "lng": 109.5514   , "lat": 34.945455, "name":"Purple Mountain, Hainan Island station"},
{ "lng": 290.6769   , "lat": 10.075583, "name":"Observatorio Taya Beixo, Barquisimeto"},
{ "lng": 287.7166   , "lat": 43.704047, "name":"Shattuck Observatory, Hanover"},
{ "lng": 289.59569  , "lat":-24.627212, "name":"Cerro Paranal"},
{ "lng": 288.87164  , "lat": 42.381468, "name":"Minor Planet Center Test Code"},
{ "lng": 112.334    , "lat": 16.831966, "name":"Tsingtao field station, Xisha Islands"},
{ "lng": 115.691    , "lat":-31.649985, "name":"Quinns Rock"},
{ "lng": 116.1350   , "lat":-32.007951, "name":"Perth Observatory, Perth-Lowell Telescope"},
{ "lng": 116.4381   , "lat":-30.929884, "name":"Chiro Observatory"},
{ "lng": 115.7571   , "lat":-31.790469, "name":"Craigie"},
{ "lng": 116.1340   , "lat":-32.008744, "name":"Perth Observatory, Bickley-MCT"},
{ "lng": 116.1350   , "lat":-32.008744, "name":"Perth Observatory, Bickley"},
{ "lng": 116.3277   , "lat": 40.101011, "name":"Peking Observatory, Shaho Station"},
{ "lng": 117.5750   , "lat": 40.394239, "name":"Peking Observatory, Xinglong Station"},
{ "lng": 118.8209   , "lat": 32.066662, "name":"Purple Mountain Observatory, Nanking"},
{ "lng": 249.5236   , "lat": 31.962537, "name":"Desert Eagle Observatory"},
{ "lng": 120.3196   , "lat": 36.069984, "name":"Tsingtao"},
{ "lng": 121.1843   , "lat": 31.095926, "name":"Sheshan"},
{ "lng": 135.4853   , "lat": 34.806934, "name":"Toyonaka"},
{ "lng": 137.9486   , "lat": 36.328956, "name":"Akashina"},
{ "lng": 134.3189   , "lat": 33.551342, "name":"Shishikui"},
{ "lng": 127.1258   , "lat": 38.200078, "name":"Younchun"},
{ "lng": 128.9767   , "lat": 36.164835, "name":"Bohyunsan Optical Astronomy Observatory"},
{ "lng": 128.4575   , "lat": 36.934554, "name":"Sobaeksan Optical Astronomy Observatory"},
{ "lng": 127.3854   , "lat": 36.507876, "name":"KNUE Astronomical Observatory"},
{ "lng": 139.9086   , "lat": 36.563401, "name":"Utsunomiya-Imaizumi"},
{ "lng": 135.2669   , "lat": 35.307915, "name":"Ayabe"},
{ "lng": 139.56622  , "lat": 35.956470, "name":"Ageo"},
{ "lng": 139.2635   , "lat": 36.481912, "name":"Kurohone"},
{ "lng": 135.8678   , "lat": 35.068331, "name":"Sakamoto"},
{ "lng": 136.1778   , "lat": 34.947102, "name":"Konan"},
{ "lng": 135.0648   , "lat": 34.741373, "name":"Nishi Kobe"},
{ "lng": 140.0206   , "lat": 36.867325, "name":"Kawachi"},
{ "lng": 139.2133   , "lat": 35.388445, "name":"Hadano"},
{ "lng": 141.0867   , "lat": 38.540262, "name":"Kogota"},
{ "lng": 140.0064   , "lat": 36.184257, "name":"Shimotsuma"},
{ "lng": 140.1586   , "lat": 38.045106, "name":"Nanyo"},
{ "lng": 135.1719   , "lat": 34.214312, "name":"Wakayama"},
{ "lng": 132.9442   , "lat": 33.674308, "name":"Kuma Kogen"},
{ "lng": 134.8933   , "lat": 34.349555, "name":"Sumoto"},
{ "lng": 140.6550   , "lat": 42.644812, "name":"Ray Observatory"},
{ "lng": 130.7703   , "lat": 33.559953, "name":"Yamada"},
{ "lng": 130.5747   , "lat": 31.644934, "name":"YCPM Kagoshima Station"},
{ "lng": 135.9579   , "lat": 34.409143, "name":"Uto Observatory"},
{ "lng": 138.3003   , "lat": 35.862459, "name":"Miyasaka Observatory"},
{ "lng": 133.1670   , "lat": 35.499977, "name":"Yatsuka"},
{ "lng": 138.8117   , "lat": 35.804841, "name":"Ochiai"},
{ "lng": 139.1500   , "lat": 35.989182, "name":"Chichibu"},
{ "lng": 133.5273   , "lat": 33.552139, "name":"Kochi"},
{ "lng": 133.5965   , "lat": 34.573894, "name":"Tokyo-Okayama"},
{ "lng": 133.8276   , "lat": 33.526623, "name":"Geisei"},
{ "lng": 135.3397   , "lat": 34.132477, "name":"Oishi"},
{ "lng": 134.7196   , "lat": 35.094608, "name":"Minami-Oda Observatory"},
{ "lng": 134.8708   , "lat": 34.950729, "name":"Uzurano"},
{ "lng": 139.0392   , "lat": 35.689745, "name":"Uenohara"},
{ "lng": 135.7933   , "lat": 34.994623, "name":"Kwasan Observatory, Kyoto"},
{ "lng": 136.0142   , "lat": 34.570222, "name":"Murou"},
{ "lng": 137.6279   , "lat": 34.703448, "name":"Hamamatsu-Yuto"},
{ "lng": 137.0349   , "lat": 34.814608, "name":"Ishiki"},
{ "lng": 137.62542  , "lat": 35.797229, "name":"Tokyo-Kiso"},
{ "lng": 137.5553   , "lat": 36.113770, "name":"Tokyo-Norikura"},
{ "lng": 137.8959   , "lat": 36.761699, "name":"Chirorin"},
{ "lng": 138.1792   , "lat": 34.818384, "name":"Shimada"},
{ "lng": 138.4680   , "lat": 34.970368, "name":"Nihondaira Observatory"},
{ "lng": 138.3217   , "lat": 35.890776, "name":"Yatsugatake-Kobuchizawa"},
{ "lng": 139.1944   , "lat": 36.006046, "name":"Tokyo-Dodaira"},
{ "lng": 139.5421   , "lat": 35.672253, "name":"Tokyo-Mitaka"},
{ "lng": 139.7447   , "lat": 35.654413, "name":"Tokyo (before 1938)"},
{ "lng": 139.8725   , "lat": 36.556046, "name":"Utsunomiya"},
{ "lng": 140.77843  , "lat": 38.265246, "name":"Sendai Observatory, Ayashi Station"},
{ "lng": 141.3667   , "lat": 42.913350, "name":"JCPM Sapporo Station"},
{ "lng": 140.1292   , "lat": 36.091454, "name":"JCPM Sakura Station"},
{ "lng": 142.3208   , "lat": 45.111668, "name":"JCPM Hamatonbetsu Station"},
{ "lng": 142.3583   , "lat": 43.840783, "name":"Tokyo-Asahikawa"},
{ "lng": 142.4208   , "lat": 43.743384, "name":"Asahikawa"},
{ "lng": 141.4761   , "lat": 43.033526, "name":"Sapporo Science Center"},
{ "lng": 139.1080   , "lat": 36.124836, "name":"Nagatoro"},
{ "lng": 144.5900   , "lat": 43.078239, "name":"Kushiro"},
{ "lng": 143.7827   , "lat": 43.758443, "name":"Kitami"},
{ "lng": 139.4208   , "lat": 36.112161, "name":"Oosato"},
{ "lng": 136.3078   , "lat": 35.208347, "name":"Dynic Astronomical Observatory"},
{ "lng": 137.0556   , "lat": 35.413171, "name":"Kani"},
{ "lng": 140.9292   , "lat": 37.823762, "name":"Yamamoto"},
{ "lng": 139.3292   , "lat": 36.297262, "name":"Kamihoriguchi"},
{ "lng": 141.8233   , "lat": 43.255299, "name":"Bibai"},
{ "lng": 140.3099   , "lat": 38.442185, "name":"Kahoku"},
{ "lng": 138.1747   , "lat": 35.899622, "name":"Nyukasa"},
{ "lng": 139.5211   , "lat": 35.766543, "name":"Kiyose and Mizuho"},
{ "lng": 134.8910   , "lat": 35.127762, "name":"Sengamine"},
{ "lng": 139.4170   , "lat": 36.250478, "name":"Oizumi"},
{ "lng": 140.5991   , "lat": 36.960421, "name":"Iwaki"},
{ "lng": 149.06608  , "lat":-31.277057, "name":"Siding Spring Observatory"},
{ "lng": 149.0077   , "lat":-35.320502, "name":"Mount Stromlo"},
{ "lng": 149.0636   , "lat":-35.396942, "name":"Kambah"},
{ "lng": 149.1336   , "lat":-35.311609, "name":"Barton"},
{ "lng": 137.1371   , "lat": 37.334673, "name":"Yanagida Astronomical Observatory"},
{ "lng": 150.94034  , "lat":-31.081447, "name":"Tamworth"},
{ "lng": 150.8329   , "lat":-33.608598, "name":"Windsor"},
{ "lng": 151.2050   , "lat":-33.861540, "name":"Sydney"},
{ "lng": 133.7650   , "lat": 33.755950, "name":"Mt. Kajigamori, Otoyo"},
{ "lng": 151.0461   , "lat":-31.334632, "name":"Loomberah"},
{ "lng": 151.12473  , "lat":-33.804956, "name":"North Ryde"},
{ "lng": 149.0658   , "lat":-35.255144, "name":"Macquarie"},
{ "lng": 152.9316   , "lat":-27.463275, "name":"Taylor Range Observatory, Brisbane"},
{ "lng": 136.8217   , "lat":-31.196556, "name":"Woomera"},
{ "lng": 138.7283   , "lat":-34.333272, "name":"Stockport"},
{ "lng": 153.3970   , "lat":-28.110269, "name":"Reedy Creek"},
{ "lng": 149.0400   , "lat":-35.252741, "name":"Hawker"},
{ "lng": 149.2123   , "lat":-31.278320, "name":"Rainbow Observatory, near Coonabarabran"},
{ "lng": 149.7578   , "lat":-33.434627, "name":"Mt. Tarana Observatory, Bathurst"},
{ "lng": 153.08222  , "lat":-30.339159, "name":"Boambee"},
{ "lng": 152.1078   , "lat":-32.738478, "name":"Bagnall Beach Observatory"},
{ "lng":  10.9206   , "lat": 45.052013, "name":"S. Benedetto Po"},
{ "lng":  11.8936   , "lat": 45.404256, "name":"G. Colombo Astronomical Observatory, Padua"},
{ "lng":  11.3356   , "lat": 44.328016, "name":"Osservatorio di Livergnano"},
{ "lng": 284.6971   , "lat": 40.010986, "name":"Haverford"},
{ "lng": 287.3621   , "lat": 42.317295, "name":"Smith College Observatory, Northampton"},
{ "lng": 253.2539   , "lat": 35.869209, "name":"ROTSE-III, Los Alamos"},
{ "lng": 278.6842   , "lat": 43.192028, "name":"Elginfield Observatory"},
{ "lng": 357.1697   , "lat": 56.337515, "name":"Swilken Brae, St. Andrews"},
{ "lng": 357.4822   , "lat": 41.707871, "name":"Gualba Observatory"},
{ "lng": 301.4656   , "lat":-34.633268, "name":"Obs. Astronomico Plomer, Buenos Aires"},
{ "lng": 243.2794   , "lat": 33.483600, "name":"Star Cruiser Observatory"},
{ "lng": 359.4200   , "lat": 38.818062, "name":"Observatorio d'Ontinyent"},
{ "lng": 262.1666   , "lat": 29.569093, "name":"Kingsnake Observatory, Seguin"},
{ "lng": 255.2056   , "lat": 39.621225, "name":"Centennial Observatory"},
{ "lng": 253.2801   , "lat": 32.387587, "name":"Desert Moon Observatory, Las Cruces"},
{ "lng": 279.6503   , "lat": 34.383671, "name":"Griffin Hunter Observatory, Bethune"},
{ "lng": 279.3339   , "lat": 35.151408, "name":"Carla Jane Observatory, Charlotte"},
{ "lng": 262.7569   , "lat": 37.491891, "name":"West Skies Observatory, Mulvane"},
{ "lng": 279.1063   , "lat": 26.178656, "name":"Big Cypress Observatory, Fort Lauderdale"},
{ "lng": 242.1331   , "lat": 34.984639, "name":"Edwards Raven Observatory"},
{ "lng": 283.37678  , "lat": 39.331812, "name":"Maryland Space Grant Consortium Observatory"},
{ "lng": 237.9636   , "lat": 37.989977, "name":"CBA Concord"},
{ "lng": 358.8278   , "lat": 52.252596, "name":"Daventry Observatory"},
{ "lng":  18.3403   , "lat": 48.628495, "name":"Partizanske"},
{ "lng": 355.9806   , "lat": 40.647204, "name":"Guadarrama Observatory"},
{ "lng": 288.1172   , "lat": 43.540840, "name":"Smith River Observatory, Danbury"},
{ "lng": 265.9981   , "lat": 33.982263, "name":"Area 52 Observatory, Nashville"},
{ "lng":  19.89367  , "lat": 47.917455, "name":"University of Szeged, Piszkesteto Stn. (Konkoly)"},
{ "lng": 283.0842   , "lat": 38.921254, "name":"Mount Belleview Observatory"},
{ "lng": 254.7375   , "lat": 40.004026, "name":"Sommers-Bausch Observatory, Boulder"},
{ "lng": 288.5013   , "lat": 41.410715, "name":"Toby Point Observatory, Narragansett"},
{ "lng": 174.7801   , "lat":-36.803529, "name":"Takapuna"},
{ "lng": 174.8487   , "lat":-36.942156, "name":"Mount Molehill Observatory, Auckland"},
{ "lng": 174.7766   , "lat":-36.907900, "name":"Auckland Observatory"},
{ "lng":  13.3296   , "lat": 41.821092, "name":"Astronomical Observatory, Campo Catino"},
{ "lng":   7.3820   , "lat": 47.356257, "name":"Courroux"},
{ "lng":  13.32756  , "lat": 41.570282, "name":"Ceccano"},
{ "lng":   8.2389   , "lat": 55.781599, "name":"Houstrup"},
{ "lng":   6.3203   , "lat": 44.694558, "name":"Merlette"},
{ "lng":  13.31661  , "lat": 46.086367, "name":"Remanzacco"},
{ "lng": 170.46496  , "lat":-43.987388, "name":"Mount John Observatory, Lake Tekapo"},
{ "lng":   7.6965   , "lat": 45.069054, "name":"Turin (before 1913)"},
{ "lng":   7.14074  , "lat": 45.142174, "name":"Grange Observatory, Bussoleno"},
{ "lng":   0.4856   , "lat": 51.702635, "name":"Galleywood"},
{ "lng":   3.0896   , "lat": 43.588723, "name":"Lamalou-les-Bains"},
{ "lng":   6.0505   , "lat": 43.193574, "name":"Sollies-Pont"},
{ "lng":   0.7733   , "lat": 52.166479, "name":"Cockfield"},
{ "lng":   7.93067  , "lat": 53.553670, "name":"Moorwarfen"},
{ "lng": 357.1854   , "lat": 56.336721, "name":"St. Andrews"},
{ "lng": 173.8036   , "lat":-41.749054, "name":"Carter Observatory, Black Birch Station"},
{ "lng": 174.7594   , "lat":-41.339510, "name":"Happy Valley, Wellington"},
{ "lng": 174.7654   , "lat":-41.284240, "name":"Carter Observatory, Wellington"},
{ "lng": 175.47     , "lat":-40.237349, "name":"Palmerston North"},
{ "lng": 355.4444   , "lat": 55.439342, "name":"Macnairston Observatory"},
{ "lng": 358.3664   , "lat": 55.001347, "name":"Newcastle-upon-Tyne"},
{ "lng": 359.87     , "lat": 52.351623, "name":"Hemingford Abbots"},
{ "lng": 358.00     , "lat": 50.838529, "name":"Wimborne Minster"},
{ "lng": 356.9000   , "lat": 40.525053, "name":"Centro Astronomico de Yebes"},
{ "lng": 358.47     , "lat": 52.913724, "name":"Mickleover"},
{ "lng": 357.4542   , "lat": 37.223531, "name":"Calar Alto"},
{ "lng": 357.8361   , "lat": 52.412865, "name":"Stakenbridge"},
{ "lng": 357.66247  , "lat": 53.376319, "name":"Altrincham"},
{ "lng": 358.6860   , "lat": 50.962820, "name":"Bishopstoke"},
{ "lng": 359.29449  , "lat": 51.608582, "name":"Loudwater"},
{ "lng": 359.2581   , "lat": 52.262099, "name":"Earls Barton"},
{ "lng": 359.79078  , "lat": 51.369834, "name":"Cheam"},
{ "lng":   0.00000  , "lat":  0.000000, "name":"Geocentric"},
{ "lng":   0.3475   , "lat": 50.869432, "name":"Herstmonceux"},
{ "lng":   0.84793  , "lat": 51.915842, "name":"Colchester"},
{ "lng":   0.0948   , "lat": 52.214289, "name":"Cambridge"},
{ "lng":   4.3944   , "lat": 46.822521, "name":"Le Creusot"},
{ "lng":   4.5639   , "lat": 51.566280, "name":"Simon Stevin"},
{ "lng":   9.96     , "lat": 53.303447, "name":"Bendestorf"},
{ "lng":   5.22     , "lat": 51.949210, "name":"Nyenheim"},
{ "lng":   5.29     , "lat": 51.949210, "name":"Zeist"},
{ "lng":   5.8725   , "lat": 43.099337, "name":"La Seyne sur Mer"},
{ "lng":   8.0256   , "lat": 50.910286, "name":"Siegen"},
{ "lng":   5.7157   , "lat": 43.931875, "name":"Haute Provence"},
{ "lng":   4.4893   , "lat": 52.157984, "name":"Leiden (before 1860)"},
{ "lng":   4.7855   , "lat": 45.694788, "name":"Lyons"},
{ "lng":   8.438    , "lat": 49.456279, "name":"Mundenheim (1907-1913)"},
{ "lng":   7.4956   , "lat": 49.814908, "name":"Volkssternwarte Dhaun, near Kirn"},
{ "lng":   9.97321  , "lat": 53.551081, "name":"Hamburg (before 1909)"},
{ "lng":   6.1358   , "lat": 46.310753, "name":"Geneva (from 1967)"},
{ "lng":   9.9727   , "lat": 53.547675, "name":"Marine Observatory, Hamburg"},
{ "lng":   8.2867   , "lat": 51.342097, "name":"Meschede"},
{ "lng":   7.0966   , "lat": 50.728847, "name":"Bonn"},
{ "lng":  10.88794  , "lat": 49.884549, "name":"Remeis Observatory, Bamberg"},
{ "lng":   7.7677   , "lat": 48.583819, "name":"Strasbourg"},
{ "lng":   8.6512   , "lat": 50.116646, "name":"Frankfurt"},
{ "lng":   8.4605   , "lat": 49.484894, "name":"Mannheim"},
{ "lng":   8.76917  , "lat": 50.811848, "name":"Marburg"},
{ "lng":  10.1477   , "lat": 54.340949, "name":"Kiel"},
{ "lng":   9.9431   , "lat": 53.545029, "name":"Altona"},
{ "lng":   9.9426   , "lat": 51.529931, "name":"Gottingen"},
{ "lng":  10.7229   , "lat": 59.912146, "name":"Christiania"},
{ "lng":  10.6898   , "lat": 53.856800, "name":"Lubeck"},
{ "lng":  12.4797   , "lat": 41.898438, "name":"Collegio Romano, Rome"},
{ "lng":  11.6084   , "lat": 48.146087, "name":"Munich"},
{ "lng":  11.8715   , "lat": 45.400199, "name":"Padua"},
{ "lng":  12.3913   , "lat": 51.334935, "name":"Leipzig (since 1861)"},
{ "lng":  13.3578   , "lat": 38.112038, "name":"Palermo"},
{ "lng":  13.1062   , "lat": 52.406679, "name":"Berlin-Babelsberg"},
{ "lng":  13.3642   , "lat": 52.526023, "name":"Urania Observatory, Berlin"},
{ "lng":  13.8461   , "lat": 44.863303, "name":"Pola"},
{ "lng":  14.1316   , "lat": 48.056389, "name":"Kremsmunster"},
{ "lng":  14.2753   , "lat": 48.442489, "name":"Linz"},
{ "lng":  14.3953   , "lat": 50.076637, "name":"Prague"},
{ "lng":  13.0374   , "lat": 52.567266, "name":"Falkensee"},
{ "lng":  12.3688   , "lat": 51.337979, "name":"Leipzig (before 1861)"},
{ "lng":  13.35131  , "lat": 52.457381, "name":"Wilhelm Foerster Observatory, Berlin"},
{ "lng":  16.3817   , "lat": 48.209620, "name":"Vienna (before 1879)"},
{ "lng":  16.3549   , "lat": 48.215289, "name":"Oppolzer Observatory, Vienna"},
{ "lng":  17.0363   , "lat": 51.115578, "name":"Breslau"},
{ "lng":  13.3950   , "lat": 52.504462, "name":"Berlin (1835-1913)"},
{ "lng":  17.6257   , "lat": 59.858039, "name":"Uppsala"},
{ "lng":  11.4196   , "lat": 53.627586, "name":"Schwerin"},
{ "lng":  18.1895   , "lat": 47.874161, "name":"Hurbanovo"},
{ "lng":  11.3418   , "lat": 44.468021, "name":"Osservatorio S. Vittore, Bologna"},
{ "lng":  18.9938   , "lat": 50.299749, "name":"Chorzow"},
{ "lng":   8.3959   , "lat": 50.539287, "name":"Burgsolms Observatory, Wetzlar"},
{ "lng":  19.8263   , "lat": 50.054245, "name":"Cracow-Fort Skala"},
{ "lng":  11.26     , "lat": 47.589673, "name":"Reintal, near Munich"},
{ "lng":  14.77961  , "lat": 49.914803, "name":"Ondrejov"},
{ "lng":  21.0303   , "lat": 52.217857, "name":"Warsaw"},
{ "lng":  14.98     , "lat": 37.618100, "name":"Serra La Nave"},
{ "lng":  10.93100  , "lat": 45.407461, "name":"Madonna di Dossobuono"},
{ "lng":  19.89367  , "lat": 47.917455, "name":"Piszkesteto Stn. (Konkoly)"},
{ "lng":  15.9236   , "lat": 48.083754, "name":"Figl Observatory, Vienna"},
{ "lng":  13.60     , "lat": 47.952529, "name":"Seewalchen"},
{ "lng":  11.19     , "lat": 48.029249, "name":"Herrsching"},
{ "lng":  10.1344   , "lat": 45.317821, "name":"Bassano Bresciano"},
{ "lng": 203.7424   , "lat": 20.708375, "name":"Haleakala-NEAT/GEODSS"},
{ "lng":  12.7117   , "lat": 45.843338, "name":"Chions"},
{ "lng": 204.5278   , "lat": 19.826116, "name":"Maunakea"},
{ "lng":  24.9587   , "lat": 60.155276, "name":"Helsinki"},
{ "lng":  25.2990   , "lat": 54.682117, "name":"Vilnius (since 1939)"},
{ "lng":  10.63     , "lat": 45.354705, "name":"Cavriana"},
{ "lng":   6.89     , "lat": 50.927521, "name":"Cologne"},
{ "lng":   9.6612   , "lat": 52.175130, "name":"Eldagsen"},
{ "lng":  10.2667   , "lat": 45.297123, "name":"Gottolengo"},
{ "lng":   6.808    , "lat": 47.089416, "name":"La Chaux de Fonds"},
{ "lng":   0.3760   , "lat": 50.994968, "name":"Burwash"},
{ "lng":   7.50     , "lat": 47.462736, "name":"Metzerlen Observatory"},
{ "lng":  27.99     , "lat":-26.204483, "name":"Linden Observatory"},
{ "lng":   8.85     , "lat": 44.786623, "name":"Novi Ligure"},
{ "lng":  15.4936   , "lat": 47.067254, "name":"Graz"},
{ "lng":  22.80     , "lat":-33.995489, "name":"Sedgefield"},
{ "lng":   1.2408   , "lat": 52.009272, "name":"Orwell Park"},
{ "lng":  30.2717   , "lat": 46.397290, "name":"Odesa-Mayaky"},
{ "lng":  30.2946   , "lat": 59.942394, "name":"Leningrad"},
{ "lng":  30.52462  , "lat": 50.297969, "name":"Kyiv comet station"},
{ "lng":   0.1423   , "lat": 42.936555, "name":"Pic du Midi"},
{ "lng":   9.22918  , "lat": 45.882949, "name":"Sormano"},
{ "lng":  11.25     , "lat": 44.461990, "name":"Eremo di Tizzano"},
{ "lng":  12.64369  , "lat": 42.519425, "name":"Santa Lucia Stroncone"},
{ "lng":   7.46     , "lat": 47.462736, "name":"Metzerlen"},
{ "lng":   9.6258   , "lat": 52.507327, "name":"Resse Observatory"},
{ "lng":   7.02114  , "lat": 51.174341, "name":"Solingen"},
{ "lng":  11.17     , "lat": 42.430591, "name":"Monte Argentario"},
{ "lng":  13.2033   , "lat": 41.957433, "name":"Monte Autore"},
{ "lng":  13.52578  , "lat": 45.915733, "name":"Farra d'Isonzo"},
{ "lng":  12.6183   , "lat": 41.983845, "name":"Colleverde di Guidonia"},
{ "lng":   9.6631   , "lat": 52.170501, "name":"Springe"},
{ "lng":  11.33409  , "lat": 44.259208, "name":"Loiano"},
{ "lng":  13.55764  , "lat": 42.444136, "name":"Campo Imperatore-CINEOS"},
{ "lng":  11.4708   , "lat": 44.358840, "name":"TLC Observatory, Bologna"},
{ "lng":  13.7281   , "lat": 51.038129, "name":"Engelhardt Observatory, Dresden"},
{ "lng":  16.3854   , "lat": 48.212050, "name":"Urania Observatory, Vienna"},
{ "lng":  10.1300   , "lat": 54.202600, "name":"Bothkamp"},
{ "lng":  13.47524  , "lat": 52.486761, "name":"Archenhold Sternwarte, Berlin-Treptow"},
{ "lng":   7.1130   , "lat": 51.674076, "name":"Marl"},
{ "lng":   9.9956   , "lat": 53.684186, "name":"Norderstedt"},
{ "lng":   8.0000   , "lat": 51.218913, "name":"Hagen Observatory, Ronkhausen"},
{ "lng": 203.7420   , "lat": 20.708375, "name":"Haleakala-AMOS"},
{ "lng":  12.8533   , "lat": 42.570843, "name":"Osservatorio Polino"},
{ "lng":  11.3431   , "lat": 44.391708, "name":"Pianoro"},
{ "lng":   8.6531   , "lat": 49.647790, "name":"Starkenburg Sternwarte, Heppenheim"},
{ "lng":   7.10     , "lat": 51.411396, "name":"Lenkerbeck"},
{ "lng":   7.0709   , "lat": 51.409604, "name":"Heisingen"},
{ "lng":   2.467    , "lat": 48.635126, "name":"Soisy-sur-Seine"},
{ "lng":   6.9067   , "lat": 44.697855, "name":"St. Veran"},
{ "lng":  16.58348  , "lat": 49.204434, "name":"Brno"},
{ "lng":   2.5725   , "lat": 48.416110, "name":"Arbonne la Foret"},
{ "lng":   5.0077   , "lat": 43.419372, "name":"Martigues"},
{ "lng":   2.09013  , "lat": 41.550043, "name":"Sabadell"},
{ "lng":   2.9517   , "lat": 39.643980, "name":"Observatorio Astronomico de Mallorca"},
{ "lng":   7.48503  , "lat": 51.086390, "name":"Bergisch Gladbach"},
{ "lng":   7.5680   , "lat": 46.645163, "name":"Oberwichtrach"},
{ "lng":   5.5667   , "lat": 50.618355, "name":"Liege"},
{ "lng":   9.6167   , "lat": 49.762986, "name":"Dertingen"},
{ "lng": 203.5683   , "lat": 20.746069, "name":"Kihei-AMOS Remote Maui Experimental Site"},
{ "lng":   4.9864   , "lat": 51.157211, "name":"Geel"},
{ "lng":   5.2146   , "lat": 44.042227, "name":"Blauvac"},
{ "lng":   6.84366  , "lat": 51.427430, "name":"Mulheim-Ruhr"},
{ "lng":  20.1511   , "lat": 46.250362, "name":"Szeged Observatory"},
{ "lng":   7.2367   , "lat": 47.992991, "name":"Osenbach"},
{ "lng":  10.02293  , "lat": 53.508969, "name":"Hamburg-Georgswerder"},
{ "lng":  11.1739   , "lat": 43.728395, "name":"San Polo A Mosciano"},
{ "lng":   9.9339   , "lat": 44.099841, "name":"Romito"},
{ "lng":   5.1456   , "lat": 45.527180, "name":"Crolles"},
{ "lng":   2.9019   , "lat": 42.700402, "name":"Pergignan"},
{ "lng":   6.9794   , "lat": 51.394563, "name":"Essen"},
{ "lng":  10.0903   , "lat": 53.703441, "name":"Hamburg-Himmelsmoor"},
{ "lng":   8.8933   , "lat": 51.940146, "name":"Detmold"},
{ "lng":  13.7233   , "lat": 51.094359, "name":"Dresden"},
{ "lng":  13.5996   , "lat": 50.086985, "name":"Senftenberger Sternwarte"},
{ "lng":  20.0272   , "lat":-34.535490, "name":"Overberg"},
{ "lng": 236.6850   , "lat": 48.427924, "name":"Oak Bay, Victoria"},
{ "lng": 243.2794   , "lat": 33.483600, "name":"OCA-Anza Observatory"},
{ "lng": 243.14022  , "lat": 33.357340, "name":"Palomar Mountain/NEAT"},
{ "lng": 254.17942  , "lat": 32.780502, "name":"Apache Point-Sloan Digital Sky Survey"},
{ "lng": 242.4369   , "lat": 33.997240, "name":"Santana Observatory, Rancho Cucamonga"},
{ "lng": 245.9683   , "lat": 50.778455, "name":"Stone Finder Observatory, Calgary"},
{ "lng": 249.39822  , "lat": 31.665606, "name":"Winer Observatory, Sonoita"},
{ "lng": 265.3003   , "lat": 38.646416, "name":"Powell Observatory, Louisburg"},
{ "lng": 242.9028   , "lat": 33.467301, "name":"Temecula"},
{ "lng": 249.41916  , "lat": 31.670421, "name":"Grasslands Observatory, Tucson"},
{ "lng": 245.9333   , "lat": 51.116859, "name":"Rock Finder Observatory, Calgary"},
{ "lng": 237.8678   , "lat": 47.183041, "name":"Torus Observatory, Buckley"},
{ "lng": 242.31841  , "lat": 34.381822, "name":"Table Mountain Observatory, Wrightwood-PHMC"},
{ "lng": 236.383    , "lat": 48.366952, "name":"Sooke"},
{ "lng": 236.3921   , "lat": 48.353425, "name":"Victoria"},
{ "lng": 236.6903   , "lat": 48.461980, "name":"Climenhaga Observatory, Victoria"},
{ "lng": 236.58300  , "lat": 48.519987, "name":"Dominion Astrophysical Observatory"},
{ "lng": 237.0514   , "lat": 48.599732, "name":"Heron Cove Observatory, Orcas"},
{ "lng": 237.7379   , "lat": 37.873406, "name":"Leuschner Observatory, Berkeley"},
{ "lng": 245.7117   , "lat": 50.868272, "name":"Rothney Astrophysical Observatory, Priddis"},
{ "lng": 238.3545   , "lat": 37.340108, "name":"Lick Observatory, Mount Hamilton"},
{ "lng": 248.3136   , "lat": 33.496489, "name":"Red Mountain Observatory"},
{ "lng": 239.2775   , "lat": 46.949324, "name":"Manastash Ridge Observatory"},
{ "lng": 240.9903   , "lat": 34.810651, "name":"Wallis Observatory"},
{ "lng": 241.1692   , "lat": 34.301680, "name":"Moorpark College Observatory"},
{ "lng": 240.00921  , "lat": 46.902678, "name":"Wanapum Dam"},
{ "lng": 240.82     , "lat": 34.857391, "name":"San Emigdio Peak"},
{ "lng": 240.8238   , "lat": 34.467031, "name":"Ojai"},
{ "lng": 240.9558   , "lat": 34.221330, "name":"Camarillo"},
{ "lng": 242.00198  , "lat": 34.301561, "name":"Stony Ridge"},
{ "lng": 241.9436   , "lat": 34.224694, "name":"Mount Wilson"},
{ "lng": 242.31783  , "lat": 34.381488, "name":"Table Mountain Observatory, Wrightwood"},
{ "lng": 242.33605  , "lat": 34.382192, "name":"Ford Observatory, Wrightwood"},
{ "lng": 243.13746  , "lat": 33.354120, "name":"Palomar Mountain"},
{ "lng": 242.3907   , "lat": 33.418166, "name":"San Clemente"},
{ "lng": 242.8281   , "lat": 34.273483, "name":"Lake Arrowhead"},
{ "lng": 248.2597   , "lat": 33.635876, "name":"Fountain Hills"},
{ "lng": 244.5367   , "lat": 31.043406, "name":"San Pedro Martir"},
{ "lng": 244.78     , "lat": 33.803964, "name":"Los Angeles"},
{ "lng": 245.8858   , "lat": 51.086072, "name":"Calgary"},
{ "lng": 247.6381   , "lat": 37.046938, "name":"Kanab"},
{ "lng": 248.9182   , "lat": 32.155481, "name":"Goodricke-Pigott Observatory, Tucson"},
{ "lng": 247.5100   , "lat": 34.512629, "name":"Prescott"},
{ "lng": 247.84     , "lat": 35.352234, "name":"Williams"},
{ "lng": 249.2092   , "lat": 32.441312, "name":"U. of Minn. Infrared Obs., Mt. Lemmon"},
{ "lng": 248.3473   , "lat": 35.184460, "name":"Northern Arizona University, Flagstaff"},
{ "lng": 248.4645   , "lat": 35.095943, "name":"Lowell Observatory, Anderson Mesa Station"},
{ "lng": 248.2601   , "lat": 35.183936, "name":"U.S. Naval Observatory, Flagstaff"},
{ "lng": 248.3367   , "lat": 35.201970, "name":"Lowell Observatory, Flagstaff"},
{ "lng": 248.39966  , "lat": 31.962189, "name":"Steward Observatory, Kitt Peak-Spacewatch"},
{ "lng": 249.0513   , "lat": 32.233024, "name":"Steward Observatory, Tucson"},
{ "lng": 249.26745  , "lat": 32.416873, "name":"Catalina Station, Tucson"},
{ "lng": 248.9943   , "lat": 32.213449, "name":"Tumamoc Hill, Tucson"},
{ "lng": 248.40533  , "lat": 31.958398, "name":"Kitt Peak"},
{ "lng": 249.1154   , "lat": 31.688954, "name":"Whipple Observatory, Mt. Hopkins"},
{ "lng": 248.38381  , "lat": 31.951411, "name":"Kitt Peak, McGraw-Hill"},
{ "lng": 249.26736  , "lat": 32.416926, "name":"Mt. Bigelow"},
{ "lng": 248.46331  , "lat": 35.095943, "name":"Lowell Observatory-LONEOS"},
{ "lng": 250.3817   , "lat": 36.350510, "name":"Chinle"},
{ "lng": 249.79716  , "lat": 31.475562, "name":"Junk Bond Observatory, Sierra Vista"},
{ "lng": 252.8117   , "lat": 33.984187, "name":"Joint Obs. for cometary research, Socorro"},
{ "lng": 249.26736  , "lat": 32.417032, "name":"Catalina Sky Survey"},
{ "lng": 253.34093  , "lat": 33.818259, "name":"Lincoln Laboratory ETS, New Mexico"},
{ "lng": 254.17942  , "lat": 32.780502, "name":"Apache Point"},
{ "lng": 253.9366   , "lat": 38.582008, "name":"Salida"},
{ "lng": 254.56     , "lat": 39.465804, "name":"Chamberlin field station"},
{ "lng": 255.0475   , "lat": 39.675783, "name":"Chamberlin Observatory, Denver"},
{ "lng": 254.22882  , "lat": 32.955690, "name":"W & B Observatory, Cloudcroft"},
{ "lng": 254.7336   , "lat": 38.880789, "name":"MPO Observatory, Florissant"},
{ "lng": 255.9785   , "lat": 30.671481, "name":"McDonald Observatory, Fort Davis"},
{ "lng": 255.11867  , "lat": 39.007187, "name":"USAF Academy Observatory, Colorado Springs"},
{ "lng": 254.9897   , "lat": 39.879687, "name":"Thornton"},
{ "lng": 246.8173   , "lat": 34.574092, "name":"Bagdad"},
{ "lng": 253.2759   , "lat": 32.384721, "name":"Jornada Observatory, Las Cruces"},
{ "lng": 255.2489   , "lat": 39.084677, "name":"Palmer Divide Observatory, Colorado Springs"},
{ "lng": 256.0481   , "lat": 30.610986, "name":"Prude Ranch"},
{ "lng": 247.7042   , "lat": 40.641408, "name":"Tooele"},
{ "lng": 253.08608  , "lat": 34.072674, "name":"Etscorn Observatory"},
{ "lng": 259.6261   , "lat": 25.643182, "name":"Universidad de Monterrey"},
{ "lng": 259.7312   , "lat": 40.399469, "name":"Lime Creek"},
{ "lng": 264.4192   , "lat": 29.604204, "name":"Missouri City"},
{ "lng": 263.3300   , "lat": 34.874996, "name":"Cottonwood Observatory, Ada"},
{ "lng": 260.8053   , "lat": 19.404990, "name":"National Observatory, Tacubaya"},
{ "lng": 261.3453   , "lat": 29.766354, "name":"Fair Oaks Ranch"},
{ "lng": 265.6933   , "lat": 46.448790, "name":"Brainerd"},
{ "lng": 262.53872  , "lat": 35.612756, "name":"Zeno Observatory, Edmond"},
{ "lng": 262.6084   , "lat": 27.691909, "name":"Corpus Christi"},
{ "lng": 262.87858  , "lat": 49.645227, "name":"Glenlea Astronomical Observatory, Winnipeg"},
{ "lng": 262.84143  , "lat": 47.911570, "name":"University of North Dakota, Grand Forks"},
{ "lng": 272.6711   , "lat": 39.481134, "name":"Rose-Hulman Observatory, Terre Haute"},
{ "lng": 263.2300   , "lat": 17.181651, "name":"Oaxaca"},
{ "lng": 263.3546   , "lat": 33.159311, "name":"Allen, Texas"},
{ "lng": 263.99758  , "lat": 38.890242, "name":"Farpoint Observatory, Eskridge"},
{ "lng": 264.40640  , "lat": 29.375000, "name":"George Observatory, Needville"},
{ "lng": 263.3357   , "lat": 29.618337, "name":"Houston"},
{ "lng": 275.6633   , "lat": 34.177302, "name":"New Bullpen Observatory, Alpharetta"},
{ "lng": 267.6733   , "lat": 38.944581, "name":"Observatory of the State University of Missouri"},
{ "lng": 265.2440   , "lat": 38.868756, "name":"Sunflower Observatory, Olathe"},
{ "lng": 265.3383   , "lat": 31.757304, "name":"SFA Observatory, Nacogdoches"},
{ "lng": 266.8503   , "lat": 44.461527, "name":"Goodsell Observatory, Northfield"},
{ "lng": 266.31216  , "lat": 41.595519, "name":"Drake University, Des Moines"},
{ "lng": 267.76148  , "lat": 44.982902, "name":"University of Minnesota, Minneapolis"},
{ "lng": 273.8378   , "lat": 39.847122, "name":"Doyan Rose Observatory, Indianapolis"},
{ "lng": 267.1747   , "lat": 39.229358, "name":"Morrison Obervatory, Glasgow"},
{ "lng": 275.2254   , "lat": 43.587536, "name":"Brooks Observatory, Mt. Pleasant"},
{ "lng": 268.9292   , "lat": 30.346067, "name":"Highland Road Park Observatory"},
{ "lng": 268.4680   , "lat": 41.495468, "name":"Van Allen Observatory, Iowa City"},
{ "lng": 276.1642   , "lat": 34.205355, "name":"Oakwood"},
{ "lng": 268.7282   , "lat": 44.815827, "name":"Hobbs Observatory, Fall Creek"},
{ "lng": 269.2439   , "lat": 38.799941, "name":"Lake Saint Louis"},
{ "lng": 275.4647   , "lat": 34.732390, "name":"Puckett Observatory, Mountain Town"},
{ "lng": 270.59069  , "lat": 43.076214, "name":"Washburn Observatory, Madison"},
{ "lng": 271.4432   , "lat": 42.570076, "name":"Yerkes Observatory, Williams Bay"},
{ "lng": 274.6478   , "lat": 42.914973, "name":"Optec Observatory"},
{ "lng": 272.32567  , "lat": 42.057533, "name":"Dearborn Observatory, Evanston (bef. July 1939)"},
{ "lng": 280.0050   , "lat": 36.038626, "name":"High Point"},
{ "lng": 279.2379   , "lat": 28.385032, "name":"BCC Observatory, Cocoa"},
{ "lng": 273.1947   , "lat": 36.052656, "name":"Nashville"},
{ "lng": 273.6048   , "lat": 39.549397, "name":"Goethe Link Observatory, Brooklyn"},
{ "lng": 277.6456   , "lat": 28.271214, "name":"Zephyrhills"},
{ "lng": 274.2008   , "lat": 44.956645, "name":"Four Winds Observatory, Lake Leelanau"},
{ "lng": 280.4658   , "lat": 43.914771, "name":"King City"},
{ "lng": 275.1439   , "lat": 33.722310, "name":"Puckett Observatory, Stone Mountain"},
{ "lng": 275.5775   , "lat": 39.138735, "name":"Cincinnati"},
{ "lng": 275.5167   , "lat": 42.706569, "name":"Michigan State University Obs., East Lansing"},
{ "lng": 276.2697   , "lat": 42.280295, "name":"Ann Arbor"},
{ "lng": 272.32488  , "lat": 42.059283, "name":"Dearborn Observatory, Evanston (aft. Oct. 1939)"},
{ "lng": 276.9892   , "lat": 39.997598, "name":"McMillin Observatory, Columbus"},
{ "lng": 274.0786   , "lat": 39.225235, "name":"Crescent Moon Observatory, Columbus"},
{ "lng": 277.57     , "lat": 23.013306, "name":"Boyeros Observatory, Havana"},
{ "lng": 284.0865   , "lat": 45.254105, "name":"Boltwood Observatory, Stittsville"},
{ "lng": 278.4318   , "lat": 41.536957, "name":"Warner and Swasey Observatory, Cleveland"},
{ "lng": 278.9250   , "lat": 41.591562, "name":"Warner and Swasey Nassau Station, Chardon"},
{ "lng": 284.6168   , "lat": 40.606343, "name":"Sayre Observatory, South Bethlehem"},
{ "lng": 284.4669   , "lat": 42.816318, "name":"Foggy Bottom, Hamilton"},
{ "lng": 280.6017   , "lat": 43.666676, "name":"Toronto"},
{ "lng": 279.9778   , "lat": 40.482685, "name":"Allegheny Observatory, Pittsburgh"},
{ "lng": 280.5779   , "lat": 43.862795, "name":"David Dunlap Observatory, Richmond Hill"},
{ "lng": 281.4778   , "lat": 38.033616, "name":"Leander McCormick Observatory, Charlottesville"},
{ "lng": 281.5075   , "lat": -0.233505, "name":"Quito"},
{ "lng": 281.65     , "lat":  0.000000, "name":"Quito, comet astrograph station"},
{ "lng": 282.02     , "lat": 38.650286, "name":"Rixeyville"},
{ "lng": 282.2146   , "lat": 42.250749, "name":"Stull Observatory, Alfred University"},
{ "lng": 285.3542   , "lat": 40.345554, "name":"Fitz-Randolph Observatory, Princeton"},
{ "lng": 282.9345   , "lat": 38.920446, "name":"U.S. Naval Obs., Washington (since 1893)"},
{ "lng": 282.9494   , "lat": 38.894247, "name":"U.S. Naval Obs., Washington (before 1893)"},
{ "lng": 284.3667   , "lat": 39.784239, "name":"Mount Cuba Observatory, Wilmington"},
{ "lng": 284.5940   , "lat": 43.054734, "name":"Litchfield Observatory, Clinton"},
{ "lng": 284.2835   , "lat": 45.394109, "name":"Dominion Observatory, Ottawa"},
{ "lng": 284.5236   , "lat": 39.999146, "name":"Flower and Cook Observatory, Philadelphia"},
{ "lng": 288.29905  , "lat": 41.353320, "name":"University of Rhode Island, Quonochontaug"},
{ "lng": 286.2515   , "lat": 42.663049, "name":"Dudley Observatory, Albany (before 1893)"},
{ "lng": 286.1100   , "lat": 41.688179, "name":"Vassar College Observatory, Poughkeepsie"},
{ "lng": 286.03861  , "lat": 40.809795, "name":"Rutherford"},
{ "lng": 286.45     , "lat": 41.090425, "name":"Stamford"},
{ "lng": 287.0751   , "lat": 41.316332, "name":"Yale Observatory, New Haven"},
{ "lng": 287.0154   , "lat": 41.426698, "name":"Yale Observatory, Bethany"},
{ "lng": 288.8650   , "lat": 42.453331, "name":"Winchester"},
{ "lng": 288.4511   , "lat":-16.374554, "name":"Harvard Observatory, Arequipa"},
{ "lng": 288.44233  , "lat": 42.505363, "name":"Oak Ridge Observatory"},
{ "lng": 288.87164  , "lat": 42.381468, "name":"Harvard Observatory, Cambridge"},
{ "lng": 288.9167   , "lat": 41.900060, "name":"Taunton"},
{ "lng": 289.3121   , "lat":-33.562676, "name":"Santiago-San Bernardo"},
{ "lng": 288.9800   , "lat":-32.981524, "name":"Santiago-Cerro El Roble"},
{ "lng": 289.4513   , "lat":-33.396831, "name":"Santiago-Cerro Calan"},
{ "lng": 289.1941   , "lat":-30.169135, "name":"Cerro Tololo Observatory, La Serena"},
{ "lng": 290.6708   , "lat":-31.802005, "name":"El Leoncito"},
{ "lng": 289.26626  , "lat":-29.258822, "name":"European Southern Observatory, La Silla"},
{ "lng": 288.5154   , "lat": 42.610216, "name":"Wallace Observatory, Westford"},
{ "lng": 289.89565  , "lat": 41.280622, "name":"Maria Mitchell Observatory, Nantucket"},
{ "lng": 288.4543   , "lat":-32.958004, "name":"Vina del Mar"},
{ "lng": 289.3083   , "lat":-33.445138, "name":"Santiago-Quinta Normal (1862-1920)"},
{ "lng": 288.41917  , "lat": 41.851177, "name":"North Scituate"},
{ "lng": 289.3479   , "lat":-33.440358, "name":"Santiago-Santa Lucia (1849-1861)"},
{ "lng": 285.7583   , "lat": 44.338978, "name":"Rand Observatory"},
{ "lng": 288.6104   , "lat": 42.349703, "name":"Sudbury"},
{ "lng": 286.4167   , "lat": 45.350672, "name":"Gemeaux Observatory, Laval"},
{ "lng": 284.3850   , "lat": 45.894857, "name":"Val-des-Bois"},
{ "lng": 295.37581  , "lat":-21.596256, "name":"Tarija"},
{ "lng": 295.45041  , "lat":-31.598329, "name":"Cordoba-Bosque Alegre"},
{ "lng": 295.80137  , "lat":-31.420047, "name":"Cordoba"},
{ "lng": 288.1691   , "lat": 42.609895, "name":"Fitchburg"},
{ "lng": 285.7528   , "lat": 44.342225, "name":"Lake Clear"},
{ "lng": 288.2595   , "lat": 42.337960, "name":"Granville"},
{ "lng": 288.2282   , "lat": 46.219516, "name":"Plessissville"},
{ "lng": 287.5393   , "lat": 48.651315, "name":"Saint-Felicien"},
{ "lng": 288.9758   , "lat": 41.802871, "name":"Assonet"},
{ "lng": 290.6979   , "lat":-31.799327, "name":"Complejo Astronomico El Leoncito"},
{ "lng": 288.5697   , "lat": 42.796690, "name":"Hudson"},
{ "lng": 277.4134   , "lat": 29.401652, "name":"Rosemary Hill Observatory, University of Florida"},
{ "lng": 283.1850   , "lat": 40.164833, "name":"Etters"},
{ "lng": 301.4633   , "lat":-34.629923, "name":"Obs. Astronomico de Mercedes, Buenos Aires"},
{ "lng": 301.5654   , "lat":-34.605196, "name":"Buenos Aires-AAAA"},
{ "lng": 288.6428   , "lat": 42.612227, "name":"Drum Hill Station, Chelmsford"},
{ "lng": 288.5011   , "lat": 41.758139, "name":"Furnace Brook Observatory, Cranston"},
{ "lng": 279.7553   , "lat": 26.915986, "name":"Jupiter"},
{ "lng": 275.8628   , "lat": 39.743125, "name":"Dayton"},
{ "lng": 302.0678   , "lat":-34.908385, "name":"La Plata"},
{ "lng": 276.2833   , "lat": 43.014499, "name":"Flint"},
{ "lng": 279.44233  , "lat": 37.332810, "name":"Martin Observatory, Blacksburg"},
{ "lng": 282.7678   , "lat": 39.831163, "name":"Gettysburg College Observatory"},
{ "lng": 273.0648   , "lat": 34.523202, "name":"Emerald Lane Observatory, Decatur"},
{ "lng": 303.80982  , "lat":-34.755486, "name":"Observatorio Astronomico Los Molinos"},
{ "lng": 283.5058   , "lat": 42.417288, "name":"Ford Observatory, Ithaca"},
{ "lng": 269.65501  , "lat": 38.850025, "name":"Principia Astronomical Observatory, Elsah"},
{ "lng": 275.9750   , "lat": 45.042271, "name":"Lunar Cafe Observator, Flint"},
{ "lng": 237.0219   , "lat": 43.702424, "name":"Tenagra Observatory, Cottage Grove"},
{ "lng": 265.1694   , "lat": 38.903927, "name":"Everstar Observatory, Olathe"},
{ "lng": 274.0802   , "lat": 35.204093, "name":"Cordell-Lorenz Observatory, Sewanee"},
{ "lng": 296.41962  , "lat": 44.630588, "name":"Burke-Gaffney Observatory, Halifax"},
{ "lng": 269.4050   , "lat": 38.789352, "name":"River Moss Observatory, St. Peters"},
{ "lng": 249.1517   , "lat": 32.576438, "name":"Biosphere 2 Observatory"},
{ "lng": 249.17995  , "lat": 32.299852, "name":"Sabino Canyon Observatory, Tucson"},
{ "lng": 266.5383   , "lat": 44.920528, "name":"Wayside Observatory, Minnetonka"},
{ "lng": 242.5540   , "lat": 33.995489, "name":"Riverside"},
{ "lng": 249.3992   , "lat": 31.664517, "name":"Iowa Robotic Observatory, Sonoita"},
{ "lng": 253.7800   , "lat": 35.093872, "name":"Tebbutt Observatory, Edgewood"},
{ "lng": 316.3097   , "lat":-19.823982, "name":"Wykrota Observatory-CEAMIG"},
{ "lng": 313.0347   , "lat":-23.003277, "name":"Valinhos"},
{ "lng": 312.9204   , "lat":-22.782460, "name":"Barao Geraldo"},
{ "lng": 138.5262   , "lat": 36.140884, "name":"Saku"},
{ "lng": 137.18     , "lat": 36.261419, "name":"Furukawa"},
{ "lng": 130.7533   , "lat": 32.675794, "name":"Kumamoto"},
{ "lng": 285.8792   , "lat": 41.709352, "name":"Emmy Observatory, New Paltz"},
{ "lng": 283.5100   , "lat": 38.981367, "name":"U.S. Naval Academy, Michelson"},
{ "lng": 134.1222   , "lat": 35.338934, "name":"Saji Observatory"},
{ "lng": 135.1359   , "lat": 33.922783, "name":"Hidaka Observatory"},
{ "lng": 133.4298   , "lat": 33.493125, "name":"Tosa"},
{ "lng": 313.17411  , "lat":-22.900508, "name":"Campinas"},
{ "lng": 134.3925   , "lat": 34.748574, "name":"Akou"},
{ "lng": 134.2411   , "lat": 34.090233, "name":"Tokushima"},
{ "lng": 133.7717   , "lat": 34.592760, "name":"Kurashiki Observatory"},
{ "lng": 314.41735  , "lat":-22.535487, "name":"Observatorio do Pico dos Dias, Itajuba"},
{ "lng": 139.2353   , "lat": 36.098847, "name":"Yorii"},
{ "lng": 139.2467   , "lat": 36.228291, "name":"Honjo"},
{ "lng": 139.0828   , "lat": 35.813560, "name":"Okutama"},
{ "lng": 136.9142   , "lat": 34.987323, "name":"Kagiya"},
{ "lng": 137.3535   , "lat": 35.041153, "name":"Tokai"},
{ "lng": 316.7771   , "lat":-22.895183, "name":"Rio de Janeiro"},
{ "lng": 137.2571   , "lat": 35.135162, "name":"Toyota"},
{ "lng": 137.3558   , "lat": 35.169063, "name":"JCPM Oi Station"},
{ "lng": 138.4215   , "lat": 35.019868, "name":"Shizuoka"},
{ "lng": 138.0792   , "lat": 35.140525, "name":"Kawane"},
{ "lng": 138.4667   , "lat": 34.956708, "name":"JCPM Yakiimo Station"},
{ "lng": 138.9367   , "lat": 35.170580, "name":"Mishima"},
{ "lng": 139.3367   , "lat": 36.245194, "name":"Ojima"},
{ "lng": 138.9952   , "lat": 35.124749, "name":"Gekko"},
{ "lng": 140.1427   , "lat": 36.655017, "name":"Karasuyama"},
{ "lng": 140.2500   , "lat": 35.919028, "name":"JCPM Tone Station"},
{ "lng": 140.8633   , "lat": 38.275274, "name":"JCPM Kimachi Station"},
{ "lng": 139.4753   , "lat": 36.140222, "name":"YGCO Hoshikawa and Nagano Stations"},
{ "lng": 140.86222  , "lat": 38.259193, "name":"Sendai Municipal Observatory"},
{ "lng": 138.4476   , "lat": 35.899059, "name":"Kiyosato"},
{ "lng": 140.7203   , "lat": 38.309121, "name":"Hatamae"},
{ "lng": 138.3678   , "lat": 35.879154, "name":"Yatsugatake South Base Observatory"},
{ "lng": 139.4929   , "lat": 36.193681, "name":"YGCO Chiyoda Station"},
{ "lng": 138.1883   , "lat": 34.901794, "name":"Fujieda"},
{ "lng": 142.5500   , "lat": 43.840783, "name":"Toma"},
{ "lng": 135.98994  , "lat": 35.049756, "name":"Moriyama"},
{ "lng": 137.0877   , "lat": 35.342668, "name":"Tajimi"},
{ "lng": 132.2208   , "lat": 34.221330, "name":"Ootake"},
{ "lng": 135.17423  , "lat": 35.270953, "name":"Fukuchiyama and Kannabe"},
{ "lng": 135.12     , "lat": 34.617319, "name":"Go-Chome and Kobe-Suma"},
{ "lng": 135.9246   , "lat": 33.610193, "name":"Nachi-Katsuura Observatory"},
{ "lng": 145.667    , "lat":-35.916135, "name":"Cobram"},
{ "lng": 144.9758   , "lat":-37.831574, "name":"Melbourne"},
{ "lng": 137.2467   , "lat": 36.625358, "name":"Toyama"},
{ "lng": 237.8717   , "lat": 47.944427, "name":"Snohomish Hilltop Observatory"},
{ "lng":   6.9267   , "lat": 43.748916, "name":"Caussols-ODAS"},
{ "lng": 282.9233   , "lat": 42.118459, "name":"Collins Observatory, Corning Community College"},
{ "lng": 288.2342   , "lat": 41.706538, "name":"Carbuncle Hill Observatory, Greene"},
{ "lng": 303.8161   , "lat":-34.912529, "name":"Observatorio Kappa Crucis, Montevideo"},
{ "lng": 288.0108   , "lat": 42.531103, "name":"Underwood Observatory, Hubbardston"},
{ "lng": 261.8789   , "lat": 29.790119, "name":"River Oaks Observatory, New Braunfels"},
{ "lng": 272.6836   , "lat": 39.484004, "name":"Oakley Observatory, Terre Haute"},
{ "lng": 237.5522   , "lat": 47.143704, "name":"Pacific Lutheran University Keck Observatory"},
{ "lng": 257.8694   , "lat": 43.990766, "name":"Badlands Observatory, Quinn"},
{ "lng": 248.3183   , "lat": 32.749846, "name":"Desert Beaver Observatory"},
{ "lng": 282.3353   , "lat": 43.075804, "name":"RIT Observatory, Rochester"},
{ "lng": 254.4725   , "lat": 32.991092, "name":"SW Institute for Space Research, Cloudcroft"},
{ "lng": 272.8333   , "lat": 34.671195, "name":"Timberland Observatory, Decatur"},
{ "lng": 284.6300   , "lat": 40.050923, "name":"The Bradstreet Observatory, St. Davids"},
{ "lng": 287.6769   , "lat": 46.475621, "name":"Observatoire du Cegep de Trois-Rivieres"},
{ "lng": 249.8589   , "lat": 31.400591, "name":"Palominas Observatory"},
{ "lng": 249.1209   , "lat": 31.462043, "name":"Tenagra II Observatory, Nogales"},
{ "lng": 270.56194  , "lat": 42.790800, "name":"Madison-YRS"},
{ "lng": 286.6761   , "lat": 40.905185, "name":"Moonedge Observatory, Northport"},
{ "lng": 268.7758   , "lat": 30.407442, "name":"Port Allen"},
{ "lng": 210.41224  , "lat":-17.551379, "name":"S. S. Observatory, Pamatai"},
{ "lng": 210.3842   , "lat":-17.634072, "name":"Puna'auia"},
{ "lng": 286.57401  , "lat": 41.525747, "name":"John J. McCarthy Obs., New Milford"},
{ "lng": 249.7342   , "lat": 31.476137, "name":"Rockland Observatory, Sierra Vista"},
{ "lng": 242.9572   , "lat": 32.967432, "name":"Poway Valley"},
{ "lng": 282.3394   , "lat": 38.855930, "name":"Wyrick Observatory, Haymarket"},
{ "lng": 263.3792   , "lat": 39.188979, "name":"Ibis Observatory, Manhattan"},
{ "lng": 358.6900   , "lat": 54.594859, "name":"Bradbury Observatory, Stockton-on-Tees"},
{ "lng": 351.6162   , "lat": 39.522688, "name":"Linhaceira"},
{ "lng": 359.6033   , "lat": 39.759895, "name":"Observatorio Rodeno"},
{ "lng": 358.9611   , "lat": 50.897187, "name":"Waterlooville"},
{ "lng": 359.6139   , "lat": 39.752833, "name":"Observatorio Pla D'Arguines"},
{ "lng": 359.3636   , "lat": 52.926889, "name":"Grantham"},
{ "lng": 355.8664   , "lat": 50.391587, "name":"Peverell"},
{ "lng": 354.08315  , "lat": 37.281246, "name":"Observatorio Geminis, Dos Hermanas"},
{ "lng": 354.3986   , "lat": 43.488901, "name":"Observatorio Monte Deva"},
{ "lng":   0.7931   , "lat": 40.929721, "name":"Ametlla de Mar"},
{ "lng":   2.1244   , "lat": 49.351780, "name":"Saint-Sulpice"},
{ "lng":   0.2189   , "lat": 52.468571, "name":"Pymoor"},
{ "lng": 359.8169   , "lat": 47.677637, "name":"Durtal"},
{ "lng": 342.1176   , "lat": 28.760222, "name":"La Palma"},
{ "lng": 358.2983   , "lat": 51.636471, "name":"Highworth"},
{ "lng": 359.7583   , "lat": 38.952660, "name":"Marxuquera"},
{ "lng":   2.1339   , "lat": 41.859061, "name":"Montjoia"},
{ "lng": 343.4906   , "lat": 28.298383, "name":"Teide Observatory"},
{ "lng": 350.6739   , "lat": 38.700163, "name":"Sassoeiros"},
{ "lng": 356.1908   , "lat": 40.440581, "name":"Observatorio Pozuelo"},
{ "lng": 359.3506   , "lat": 44.823124, "name":"Merignac"},
{ "lng": 358.96947  , "lat": 43.693384, "name":"Observatoire de Dax"},
{ "lng":   1.4653   , "lat": 43.549352, "name":"Ramonville Saint Agne"},
{ "lng":   0.6108   , "lat": 51.032485, "name":"Rolvenden"},
{ "lng": 356.8206   , "lat": 55.956698, "name":"City Observatory, Calton Hill, Edinburgh"},
{ "lng": 359.8188   , "lat": 38.975541, "name":"Gandia"},
{ "lng": 359.7333   , "lat": 52.616547, "name":"Werrington"},
{ "lng": 358.8433   , "lat": 51.433687, "name":"Southend Bradfield"},
{ "lng": 351.4008   , "lat": 37.191463, "name":"Observacao Astronomica no Algarve, Portimao"},
{ "lng": 357.20423  , "lat": 52.534468, "name":"Church Stretton"},
{ "lng": 358.9778   , "lat": 52.136567, "name":"Greens Norton"},
{ "lng":   0.4250   , "lat": 52.084635, "name":"Haverhill"},
{ "lng": 359.8454   , "lat": 51.521519, "name":"London-Regents Park"},
{ "lng":   0.4954   , "lat": 51.744716, "name":"Chelmsford"},
{ "lng": 350.81249  , "lat": 38.711792, "name":"Lisbon"},
{ "lng": 357.5833   , "lat": 57.160100, "name":"Dun Echt"},
{ "lng": 359.6671   , "lat": 51.579445, "name":"Harrow"},
{ "lng":   8.84431  , "lat": 44.434647, "name":"Genoa Observatory"},
{ "lng": 359.6333   , "lat": 39.478187, "name":"Observatorio Astronomico de Valencia"},
{ "lng": 358.4669   , "lat": 52.317598, "name":"Leamington Spa"},
{ "lng": 351.5483   , "lat": 54.175554, "name":"Markree"},
{ "lng": 357.24541  , "lat": 54.028476, "name":"Conder Brow"},
{ "lng": 358.6697   , "lat": 51.121308, "name":"South Wonston"},
{ "lng": 357.2200   , "lat": 54.031472, "name":"Lancaster"},
{ "lng": 353.3522   , "lat": 54.352872, "name":"Armagh"},
{ "lng": 353.6621   , "lat": 53.386636, "name":"Dunsink Observatory, Dublin"},
{ "lng": 353.79525  , "lat": 36.465879, "name":"San Fernando"},
{ "lng": 357.26975  , "lat": 50.921432, "name":"Eastfield"},
{ "lng": 357.5317   , "lat": 52.648228, "name":"Telford"},
{ "lng": 359.36053  , "lat": 51.408914, "name":"Ascot"},
{ "lng": 355.3735   , "lat": 54.177825, "name":"Isle of Man Observatory, Foxdale"},
{ "lng": 355.7060   , "lat": 55.878367, "name":"Glasgow"},
{ "lng": 357.40582  , "lat": 53.801442, "name":"Wilfred Hall Observatory, Preston"},
{ "lng": 356.3121   , "lat": 40.408374, "name":"Madrid"},
{ "lng": 356.9278   , "lat": 53.401423, "name":"Liverpool (since 1867)"},
{ "lng": 356.9995   , "lat": 53.414384, "name":"Liverpool (before 1867)"},
{ "lng": 357.49556  , "lat": 51.046536, "name":"Woolston Observatory"},
{ "lng": 359.3878   , "lat": 51.171894, "name":"Godalming"},
{ "lng": 358.4177   , "lat": 54.768164, "name":"Durham"},
{ "lng": 358.7483   , "lat": 51.759752, "name":"Oxford"},
{ "lng": 359.15     , "lat": 51.858946, "name":"Hartwell"},
{ "lng": 359.75753  , "lat": 51.613320, "name":"London-Mill Hill"},
{ "lng": 359.4725   , "lat": 44.835301, "name":"Bordeaux-Floirac"},
{ "lng":   0.3770   , "lat": 51.430107, "name":"Gravesend"},
{ "lng":   0.7441   , "lat": 42.017901, "name":"Masia Cal Maciarol Modul 2"},
{ "lng":   0.7441   , "lat": 42.017901, "name":"Masia Cal Maciarol Modul 8"},
{ "lng":   1.4000   , "lat": 41.150366, "name":"Torredembarra"},
{ "lng":   1.7181   , "lat": 43.873347, "name":"Saint-Caprais"},
{ "lng":   1.8175   , "lat": 43.445408, "name":"Belesta"},
{ "lng":   2.4417   , "lat": 41.573486, "name":"Mataro"},
{ "lng":   2.7444   , "lat": 48.742768, "name":"Gretz-Armainvilliers"},
{ "lng":   2.8847   , "lat": 43.435297, "name":"Malibert"},
{ "lng":   1.1803   , "lat": 49.527000, "name":"Quincampoix"},
{ "lng":   1.9281   , "lat": 41.266410, "name":"Observatorio Astronomico de Corbera"},
{ "lng":   2.4718   , "lat": 50.880083, "name":"Wormhout"},
{ "lng":   8.74768  , "lat": 45.396541, "name":"Stazione Astronomica di Sozzago"},
{ "lng":   7.1394   , "lat": 46.762386, "name":"Observatoire Naef, Ependes"},
{ "lng":   5.1864   , "lat": 44.021537, "name":"Les Engarouines Observatory"},
{ "lng":   6.7972   , "lat": 51.848743, "name":"Josef Bresser Sternwarte, Borken"},
{ "lng":   7.1922   , "lat": 46.770495, "name":"Tentlingen"},
{ "lng":   8.68147  , "lat": 49.545453, "name":"Guidestar Observatory, Weinheim"},
{ "lng":   7.1761   , "lat": 51.527963, "name":"Herne"},
{ "lng":   7.0744   , "lat": 50.923246, "name":"Koln"},
{ "lng":   7.51887  , "lat": 52.844412, "name":"Sogel"},
{ "lng":   8.0581   , "lat": 50.553007, "name":"Irmtraut"},
{ "lng":   8.6531   , "lat": 49.647790, "name":"Starkenburg Sternwarte-SOHAS"},
{ "lng":   8.6677   , "lat": 49.534340, "name":"Weinheim"},
{ "lng":   8.9481   , "lat": 45.675313, "name":"New Millennium Observatory, Mozzate"},
{ "lng":   9.1925   , "lat": 45.587262, "name":"Nova Milanese"},
{ "lng":   8.65736  , "lat": 49.810438, "name":"Darmstadt"},
{ "lng":  10.3236   , "lat": 51.908175, "name":"Eridanus Observatory, Langelsheim"},
{ "lng":  10.3342   , "lat": 47.726489, "name":"Kempten"},
{ "lng":  10.6733   , "lat": 43.736494, "name":"Santa Maria a Monte"},
{ "lng":  11.22308  , "lat": 45.645137, "name":"Crespadoro"},
{ "lng":  11.4186   , "lat": 45.651379, "name":"Corcaroli Observatory"},
{ "lng":  10.5517   , "lat": 54.342680, "name":"Panker"},
{ "lng":  11.0157   , "lat": 50.875357, "name":"Volkssternwarte Kirchheim"},
{ "lng":  10.7911   , "lat": 49.598090, "name":"Grosshabersdorf"},
{ "lng":  12.8978   , "lat": 50.670518, "name":"Hormersdorf Observatory"},
{ "lng":   9.7911   , "lat": 45.794504, "name":"Ganda di Aviatico"},
{ "lng":  13.6634   , "lat": 52.411257, "name":"Mueggelheim"},
{ "lng":  13.3747   , "lat": 41.764900, "name":"Campocatino Automated Telescope, Collepardo"},
{ "lng":  12.4186   , "lat": 50.983787, "name":"Altenburg"},
{ "lng":  14.4978   , "lat": 35.895108, "name":"Pieta"},
{ "lng":  14.5911   , "lat": 46.239745, "name":"Rezman Observatory, Kamnik"},
{ "lng":   9.5019   , "lat": 52.301311, "name":"Gehrden"},
{ "lng":  13.0897   , "lat": 52.358521, "name":"Inastars Observatory, Potsdam (before 2006)"},
{ "lng":  13.6972   , "lat": 48.332991, "name":"Altschwendt"},
{ "lng":   9.3620   , "lat": 51.395188, "name":"Karrenkneul"},
{ "lng":  16.5825   , "lat": 49.292629, "name":"Lelekovice"},
{ "lng":  16.6031   , "lat": 40.668886, "name":"Matera"},
{ "lng":  10.8885   , "lat": 45.347038, "name":"Povegliano Veronese"},
{ "lng":  17.6372   , "lat": 59.837517, "name":"Uppsala-Angstrom"},
{ "lng":  28.9973   , "lat": 50.000576, "name":"Andrushivka Astronomical Observatory"},
{ "lng":  18.6667   , "lat": 54.381717, "name":"Danzig"},
{ "lng":  18.7553   , "lat": 47.444102, "name":"Etyek"},
{ "lng":  10.6883   , "lat": 45.433875, "name":"Peschiera del Garda"},
{ "lng":  16.6217   , "lat": 52.628276, "name":"Ostrorog"},
{ "lng":  13.1181   , "lat": 42.485891, "name":"Osservatorio Astronomico Vallemare di Borbona"},
{ "lng":  10.3197   , "lat": 44.534187, "name":"Parma"},
{ "lng":  11.1031   , "lat": 43.742211, "name":"Osservatorio Astron. Margherita Hack, Firenze"},
{ "lng":   2.4694   , "lat": 48.693184, "name":"Observatoire de Chalandray-Canotiers"},
{ "lng":  12.9071   , "lat": 50.215609, "name":"Karlovy Vary Observatory"},
{ "lng":  20.8106   , "lat":-32.379699, "name":"YSTAR-NEOPAT Station, Sutherland"},
{ "lng":   8.8581   , "lat": 44.903887, "name":"Tortona"},
{ "lng":   9.2301   , "lat": 48.620677, "name":"Aichtal"},
{ "lng":   4.7567   , "lat": 45.768240, "name":"Cosmosoz Obs., Tassin la Demi Lune"},
{ "lng":   6.1151   , "lat": 46.449376, "name":"Couvaloup de St-Cergue"},
{ "lng":   2.4083   , "lat": 44.096659, "name":"Le Couvent de Lentin"},
{ "lng":  10.3161   , "lat": 43.533474, "name":"Stazione Osservativa Astronomica, Livorno"},
{ "lng":   7.6785   , "lat": 44.322746, "name":"Chiusa di Pesio"},
{ "lng":   9.6533   , "lat": 54.812329, "name":"Swedenborg Obs., Bockholmwik"},
{ "lng":  11.3300   , "lat": 43.321153, "name":"Osservatorio Palazzo Bindi Sergardi"},
{ "lng":  25.2033   , "lat": 64.826072, "name":"Lumijoki"},
{ "lng":  15.4533   , "lat": 48.428775, "name":"Stixendorf"},
{ "lng":  13.6222   , "lat": 51.116298, "name":"Radebeul Observatory"},
{ "lng":  16.2895   , "lat": 48.194141, "name":"Penzing Astrometric Obs., Vienna"},
{ "lng":   8.76240  , "lat": 50.158743, "name":"Bergen-Enkheim Observatory"},
{ "lng":   2.1861   , "lat": 41.398125, "name":"Fort Pius Observatory, Barcelona"},
{ "lng":  20.8356   , "lat": 48.069906, "name":"Andromeda Observatory, Miskolc"},
{ "lng":   5.64693  , "lat": 43.999793, "name":"Observatoire Chante-Perdrix, Dauban"},
{ "lng":  11.71509  , "lat": 43.135211, "name":"Stia"},
{ "lng":  23.84340  , "lat": 42.063583, "name":"Zvezdno Obshtestvo Observatory, Plana"},
{ "lng":  14.1222   , "lat": 52.208909, "name":"Lindenberg Observatory"},
{ "lng":  12.4033   , "lat": 41.869968, "name":"Balzaretto Observatory, Rome"},
{ "lng":  13.8744   , "lat": 45.643237, "name":"Osservatorio Astronomico di Trieste"},
{ "lng":  29.9969   , "lat": 62.727467, "name":"Jakokoski Observatory"},
{ "lng":  30.3333   , "lat": 36.825271, "name":"TUBITAK National Observatory"},
{ "lng":  30.8065   , "lat": 46.560440, "name":"Odesa  Astronomical Observatory, Kryzhanovka"},
{ "lng":   4.3547   , "lat": 45.537721, "name":"Albigneux"},
{ "lng":   8.7662   , "lat": 49.603879, "name":"Rimbach"},
{ "lng":   8.90133  , "lat": 44.456799, "name":"Bolzaneto"},
{ "lng":  10.3308   , "lat": 47.708625, "name":"Sterni Observatory, Kempten"},
{ "lng":   2.1431   , "lat": 41.401798, "name":"Sant Gervasi Observatory, Barcelona"},
{ "lng":  26.5997   , "lat": 62.254457, "name":"Hankasalmi Observatory"},
{ "lng":  26.0927   , "lat": 44.448518, "name":"Urseanu Observatory, Bucharest"},
{ "lng":  10.4189   , "lat": 43.858291, "name":"Lucca"},
{ "lng":  13.4577   , "lat": 45.957361, "name":"Cormons"},
{ "lng":  28.3892   , "lat": 62.315387, "name":"Taurus Hill Observatory, Varkaus"},
{ "lng":  16.2867   , "lat": 48.296458, "name":"Klosterneuburg"},
{ "lng":  16.4219   , "lat": 48.302648, "name":"Stammersdorf"},
{ "lng":  30.2092   , "lat": 54.491084, "name":"Observatory Mazzarot-1, Baran'"},
{ "lng":  10.8589   , "lat": 45.697524, "name":"Osservatorio del Monte Baldo"},
{ "lng":   2.5767   , "lat": 48.575344, "name":"Savigny-le-Temple"},
{ "lng":   8.4464   , "lat": 50.221554, "name":"Taunus Observatory, Frankfurt"},
{ "lng":  20.6566   , "lat": 50.881003, "name":"Kielce"},
{ "lng":  16.2698   , "lat": 48.217246, "name":"Alter Satzberg, Vienna"},
{ "lng":   7.47851  , "lat": 45.789693, "name":"OAVdA, Saint-Barthelemy"},
{ "lng":  37.8831   , "lat": 55.247706, "name":"Ka-Dar Observatory, Barybino"},
{ "lng":   2.53372  , "lat": 41.721521, "name":"Montseny Astronomical Observatory"},
{ "lng":   9.0033   , "lat": 46.164298, "name":"Camorino"},
{ "lng":  11.3807   , "lat": 44.455830, "name":"San Lazzaro di Savena"},
{ "lng":  10.6708   , "lat": 43.586269, "name":"Capannoli"},
{ "lng":   5.5150   , "lat": 44.408000, "name":"Observatoire des Baronnies Provencales, Moydans"},
{ "lng":  10.6286   , "lat": 45.775422, "name":"Osservatorio Cima Rest, Magasa"},
{ "lng":   4.4906   , "lat": 52.265418, "name":"Koschny Observatory, Noordwijkerhout"},
{ "lng":   8.9311   , "lat": 45.712229, "name":"Osservatorio di Tradate"},
{ "lng":   9.0758   , "lat": 44.817867, "name":"Ca del Monte"},
{ "lng":  13.0129   , "lat": 52.423524, "name":"Inastars Observatory, Potsdam (since 2006)"},
{ "lng":  36.9547   , "lat": 55.770495, "name":"1st Moscow Gymnasium Observatory, Lipki"},
{ "lng":  33.16280  , "lat": 45.219533, "name":"AZT-8 Yevpatoriya"},
{ "lng":  42.5008   , "lat": 43.274820, "name":"Terskol"},
{ "lng":   2.4414   , "lat": 41.538100, "name":"Observatorio Iluro, Mataro"},
{ "lng":   2.2636   , "lat": 41.484450, "name":"Observatorio Carmelita, Tiana"},
{ "lng":  13.4744   , "lat": 48.543040, "name":"Gaisberg Observatory, Schaerding"},
{ "lng":   0.7441   , "lat": 42.019523, "name":"Observatorio d'Ager"},
{ "lng":  10.9710   , "lat": 45.575852, "name":"Fiamene"},
{ "lng":   2.5983   , "lat": 48.554195, "name":"Cesson"},
{ "lng":  15.0557   , "lat": 37.548790, "name":"Catania"},
{ "lng":   5.6667   , "lat": 43.878280, "name":"Observatoire des Terres Blanches, Reillanne"},
{ "lng":  14.1544   , "lat": 48.476639, "name":"Picard Observatory, St. Veit"},
{ "lng":  13.1836   , "lat": 46.097357, "name":"Mandi Observatory, Pagnacco"},
{ "lng":   0.6701   , "lat": 40.807126, "name":"L'Ampolla Observatory, Tarragona"},
{ "lng":  16.5689   , "lat": 52.596406, "name":"Szamotuly-Galowo"},
{ "lng":  20.8108   , "lat":-32.375553, "name":"Southern African Large Telescope, Sutherland"},
{ "lng":  12.9486   , "lat": 50.702747, "name":"Gelenau"},
{ "lng":  10.7783   , "lat": 43.555428, "name":"Libbiano Observatory, Peccioli"},
{ "lng":  33.7258   , "lat": 35.258463, "name":"Green Island Observatory, Gecitkale"},
{ "lng":  35.0317   , "lat": 31.888210, "name":"Bareket Observatory, Macabim"},
{ "lng":  13.7125   , "lat": 48.274928, "name":"Redshed Observatory, Kallham"},
{ "lng":   2.25934  , "lat": 41.651214, "name":"Obs. de L' Ametlla del Valles, Barcelona"},
{ "lng":  11.85746  , "lat": 43.630911, "name":"Santa Mama"},
{ "lng":   8.9072   , "lat": 45.712229, "name":"Tradate"},
{ "lng":  15.0706   , "lat": 37.602675, "name":"Skylive Observatory, Catania"},
{ "lng":  17.6925   , "lat": 49.217367, "name":"Zlin Observatory"},
{ "lng":  30.3275   , "lat": 55.061283, "name":"Vitebsk"},
{ "lng":   7.3089   , "lat": 50.746314, "name":"Hennef"},
{ "lng":   5.5906   , "lat": 44.237548, "name":"Eygalayes"},
{ "lng":  19.9356   , "lat": 50.179564, "name":"Narama"},
{ "lng":  12.05439  , "lat": 44.504404, "name":"Sintini Observatory, Alfonsine"},
{ "lng":  24.7503   , "lat": 60.198376, "name":"Metsala Observatory, Espoo"},
{ "lng":   6.5981   , "lat": 51.849644, "name":"Bocholt"},
{ "lng":   2.11250  , "lat": 41.551035, "name":"Paus Observatory, Sabadell"},
{ "lng":   8.2767   , "lat": 48.942718, "name":"Corner Observatory, Durmersheim"},
{ "lng":   7.06669  , "lat": 43.577678, "name":"Vallauris"},
{ "lng":   2.99725  , "lat": 42.250063, "name":"Observatorio El Far"},
{ "lng":  12.3536   , "lat": 41.875261, "name":"Casal Lumbroso, Rome"},
{ "lng":   0.7439   , "lat": 42.018712, "name":"Ager"},
{ "lng":  12.87600  , "lat": 46.507990, "name":"Comeglians"},
{ "lng":   2.44935  , "lat": 41.538838, "name":"Observatorio Sant Pere, Mataro"},
{ "lng":   2.22439  , "lat": 41.565488, "name":"Laietania Observatory, Parets del Valles"},
{ "lng":  19.02529  , "lat": 47.553014, "name":"Polaris Observatory, Budapest"},
{ "lng":   6.87881  , "lat": 51.833875, "name":"Borken"},
{ "lng":   7.17531  , "lat": 52.299382, "name":"Deep Sky Observatorium, Bad Bentheim"},
{ "lng":   2.04350  , "lat": 41.456722, "name":"Valldoreix Obs.,Sant Cugat del Valles"},
{ "lng":   9.68531  , "lat": 52.556305, "name":"Brelingen"},
{ "lng":  20.10799  , "lat": 50.111626, "name":"Solaris Observatory, Luczanowice"},
{ "lng":  24.88779  , "lat": 60.637874, "name":"Slope Rock Observatory, Hyvinkaa"},
{ "lng":  24.3878   , "lat": 60.173240, "name":"Komakallio Observatory, Kirkkonummi"},
{ "lng":   9.00693  , "lat": 44.816520, "name":"Osservatorio di Casasco"},
{ "lng":   9.22419  , "lat": 46.804169, "name":"Sternwarte Mirasteilas, Falera"},
{ "lng":  13.53950  , "lat": 46.203214, "name":"Mount Matajur Observatory"},
{ "lng":   9.01719  , "lat": 48.635010, "name":"Owls and Ravens Observatory, Holzgerlingen"},
{ "lng":   2.4937   , "lat": 41.690658, "name":"Sant Celoni"},
{ "lng":   1.5213   , "lat": 41.189751, "name":"Observatorio El Vendrell"},
{ "lng":   7.68105  , "lat": 50.698830, "name":"Soerth Observatory"},
{ "lng":   8.98503  , "lat": 48.641134, "name":"Mauren Valley Observatory, Holzgerlingen"},
{ "lng":   1.10536  , "lat": 41.720161, "name":"Santa Maria de Montmagastrell"},
{ "lng":   8.80519  , "lat": 45.584704, "name":"Stazione Astronomica Betelgeuse, Magnago"},
{ "lng":  13.8944   , "lat": 51.032229, "name":"Sternwarte Schonfeld, Dresden"},
{ "lng":   7.95083  , "lat": 47.420270, "name":"Schafmatt Observatory, Aarau"},
{ "lng":  14.12811  , "lat": 47.963497, "name":"Astrophoton Observatory, Audorf"},
{ "lng":  11.20990  , "lat": 45.637801, "name":"Marana Observatory"},
{ "lng":  12.74126  , "lat": 42.173959, "name":"Osservatorio Astronomico Campomaggiore"},
{ "lng":   2.8990   , "lat": 39.772030, "name":"Caimari"},
{ "lng":   9.9716   , "lat": 49.846325, "name":"Maidbronn"},
{ "lng":   5.79769  , "lat": 45.184993, "name":"Gieres"},
{ "lng":   3.53775  , "lat": 51.571978, "name":"Cyclops Observatory, Oostkapelle"},
{ "lng":   6.51011  , "lat": 52.866626, "name":"Beilen Observatory"},
{ "lng":   7.45561  , "lat": 51.345508, "name":"Sternwarte Hagen"},
{ "lng":   2.7701   , "lat": 42.114404, "name":"Banyoles"},
{ "lng":   8.29681  , "lat": 44.816595, "name":"Bigmuskie Observatory, Mombercelli"},
{ "lng":   2.2619   , "lat": 41.491795, "name":"Observatori Astronomic de Tiana"},
{ "lng":  13.29686  , "lat": 46.150357, "name":"Malina River Observatory, Povoletto"},
{ "lng":   7.25544  , "lat": 47.864977, "name":"Bollwiller"},
{ "lng":   0.27539  , "lat": 47.169202, "name":"Chinon"},
{ "lng":   6.47856  , "lat": 52.712619, "name":"Hoogeveen"},
{ "lng":  34.2817   , "lat": 61.772379, "name":"Petrozavodsk"},
{ "lng":   8.15450  , "lat": 53.047909, "name":"Achternholt"},
{ "lng":   4.31031  , "lat": 51.163512, "name":"Brixiis Observatory, Kruibeke"},
{ "lng":   6.1118   , "lat": 52.004797, "name":"Sterrenwacht Andromeda, Meppel"},
{ "lng":  11.31300  , "lat": 43.317796, "name":"Siena"},
{ "lng":   0.7443   , "lat": 42.019139, "name":"Santa Coloma de Gramenet"},
{ "lng":  30.5150   , "lat": 56.321628, "name":"Velikie Luki"},
{ "lng":  13.92293  , "lat": 51.027264, "name":"Lohrmann-Observatorium, Triebenberg"},
{ "lng":   2.5305   , "lat": 41.731336, "name":"Observatorio Royal Park"},
{ "lng":  24.96114  , "lat": 60.552084, "name":"Clayhole Observatory, Jokela"},
{ "lng":  37.6331   , "lat": 48.797639, "name":"Kramatorsk"},
{ "lng":  12.1153   , "lat": 47.247514, "name":"Konigsleiten"},
{ "lng":  92.9744   , "lat": 56.012308, "name":"Krasnoyarsk"},
{ "lng":   0.7442   , "lat": 42.018712, "name":"Anysllum Observatory, Ager"},
{ "lng":  17.3761   , "lat": 59.883671, "name":"Fiby"},
{ "lng":   3.80397  , "lat": 43.823490, "name":"Rouet"},
{ "lng":   3.42622  , "lat": 48.717713, "name":"Maisoncelles"},
{ "lng":  14.0901   , "lat": 50.236680, "name":"City Observatory, Slany"},
{ "lng":   2.1107   , "lat": 41.535717, "name":"Berta Observatory, Sabadell"},
{ "lng":   9.10031  , "lat": 45.805083, "name":"Como"},
{ "lng":  15.96700  , "lat": 48.150634, "name":"Sky Vistas Observatory, Eichgraben"},
{ "lng": 132.1656   , "lat": 43.698384, "name":"ISON-Ussuriysk Observatory"},
{ "lng":  11.57261  , "lat": 47.749381, "name":"Isarwinkel Observatory, Bad Tolz"},
{ "lng":   0.74381  , "lat": 42.019284, "name":"Observatorio Joan Roget, Ager"},
{ "lng":   3.60400  , "lat": 50.683525, "name":"Frasnes-Lez-Anvaing"},
{ "lng":   5.4231   , "lat": 44.384037, "name":"ROSA Observatory, Vaucluse"},
{ "lng":  42.66191  , "lat": 43.741564, "name":"Kislovodsk Mtn. Astronomical Stn., Pulkovo Obs."},
{ "lng":   0.74383  , "lat": 42.019284, "name":"Observatorio Via Lactea, Ager"},
{ "lng":  12.9599   , "lat": 50.415635, "name":"Oberwiesenthal"},
{ "lng":   5.15439  , "lat": 51.140448, "name":"Olmen"},
{ "lng":   9.1331   , "lat": 45.642443, "name":"Seveso"},
{ "lng":  13.55806  , "lat": 42.444217, "name":"Pulkovo Observatory Station, Campo Imperatore"},
{ "lng":   4.49928  , "lat": 52.155052, "name":"Levendaal Observatory, Leiden"},
{ "lng":   1.35302  , "lat": 41.618091, "name":"Pallerols"},
{ "lng":   7.48300  , "lat": 51.469481, "name":"Wellinghofen"},
{ "lng":   1.07889  , "lat": 42.617886, "name":"Observatori Astronomic de Les Planes de Son"},
{ "lng":  35.3425   , "lat": 61.403580, "name":"Petrozavodsk University Obs., Sheltozero Stn."},
{ "lng":   6.9825   , "lat": 51.208962, "name":"Sternwarte Neanderhoehe Hochdahl e.V., Erkrath"},
{ "lng":  41.4258   , "lat": 43.649619, "name":"Ka-Dar Observatory, TAU Station, Nizhny Arkhyz"},
{ "lng":   2.8989   , "lat": 39.772030, "name":"Observatorio CEAM, Caimari"},
{ "lng":  19.0108   , "lat": 46.180557, "name":"Baja Astronomical Observatory"},
{ "lng":   2.0349   , "lat": 41.571580, "name":"Terrassa"},
{ "lng":  30.3086   , "lat": 54.479628, "name":"Starry Wanderer Observatory, Baran'"},
{ "lng":   1.01830  , "lat": 52.196794, "name":"Stowupland"},
{ "lng":   7.64911  , "lat": 45.405815, "name":"Varuna Observatory, Cuorgne"},
{ "lng":   5.7992   , "lat": 51.829232, "name":"Nijmegen"},
{ "lng":  39.0308   , "lat": 45.019547, "name":"Kuban State University Astrophysical Observatory"},
{ "lng":  42.66126  , "lat": 43.741685, "name":"MASTER-II Observatory, Kislovodsk"},
{ "lng":  87.1778   , "lat": 43.471021, "name":"Xingming Observatory, Mt. Nanshan"},
{ "lng":  14.2792   , "lat": 51.448370, "name":"Hoyerswerda"},
{ "lng":   9.02239  , "lat": 45.975463, "name":"A. Volta Observatory, Lanzo d'Intelvi"},
{ "lng":  12.40639  , "lat": 41.988382, "name":"La Giustiniana"},
{ "lng":  69.12219  , "lat": 54.878195, "name":"Horizon Observatory, Petropavlovsk"},
{ "lng":  15.2356   , "lat": 48.786797, "name":"Nonndorf"},
{ "lng": 100.9214   , "lat": 51.619826, "name":"Sayan Solar Observatory, Irkutsk"},
{ "lng":   0.000000 , "lat":  0.000000, "name":"STEREO-A"},
{ "lng":   0.000000 , "lat":  0.000000, "name":"STEREO-B"},
{ "lng":   0.000000 , "lat":  0.000000, "name":"WISE"},
{ "lng":   0.000000 , "lat":  0.000000, "name":"Swift"},
{ "lng":   0.000000 , "lat":  0.000000, "name":"NEOSSat"},
{ "lng":   0.000000 , "lat":  0.000000, "name":"New Horizons"},
{ "lng":   0.000000 , "lat":  0.000000, "name":"Kepler"},
{ "lng":   0.000000 , "lat":  0.000000, "name":"LISA-Pathfinder"},
{ "lng":   0.000000 , "lat":  0.000000, "name":"TESS"},
{ "lng":   0.000000 , "lat":  0.000000, "name":"NEO Surveyor"},
{ "lng":   0.000000 , "lat":  0.000000, "name":"Yangwang-1"},
{ "lng":   7.06926  , "lat": 50.729791, "name":"Argelander Institute for Astronomy Obs., Bonn"},
{ "lng":   2.58202  , "lat": 48.880216, "name":"Chelles"},
{ "lng":  11.3467   , "lat": 46.494235, "name":"Eurac Observatory, Bolzano"},
{ "lng":   9.9797   , "lat": 46.188865, "name":"Giuseppe Piazzi Observatory, Ponte in Valtellina"},
{ "lng":  15.28439  , "lat": 47.929391, "name":"Puchenstuben"},
{ "lng":   0.72965  , "lat": 42.051680, "name":"Observatori Astronomic del Montsec"},
{ "lng":   2.8050   , "lat": 39.666780, "name":"Observatorio El Cielo de Consell"},
{ "lng":  12.2199   , "lat": 53.403828, "name":"Gnevsdorf"},
{ "lng":  23.89339  , "lat": 37.997695, "name":"Ellinogermaniki Agogi Observatory, Pallini"},
{ "lng":  13.3611   , "lat": 48.927653, "name":"Bayerwald Sternwarte, Neuhuette"},
{ "lng":   4.49775  , "lat": 52.157400, "name":"Uiterstegracht Station, Leiden"},
{ "lng":   1.4892   , "lat": 41.702336, "name":"Sant Marti Sesgueioles"},
{ "lng":  12.8717   , "lat": 41.836813, "name":"Palestrina"},
{ "lng":  28.0325   , "lat": 45.418865, "name":"Galati Observatory"},
{ "lng":   0.7449   , "lat": 42.019523, "name":"Observatorio El Teatrillo de Lyra, Ager"},
{ "lng":  13.2225   , "lat": 46.163089, "name":"Whitestar Observatory, Borgobello"},
{ "lng":   0.74431  , "lat": 42.018998, "name":"Observatorio Estels, Ager"},
{ "lng":   7.4535   , "lat": 44.385250, "name":"Bernezzo Observatory"},
{ "lng":  34.81242  , "lat": 31.908277, "name":"Martin S. Kraar Observatory, Rehovot"},
{ "lng":   2.7855   , "lat": 41.677592, "name":"Roser Observatory, Blanes"},
{ "lng":  39.7651   , "lat": 47.284989, "name":"Don Astronomical Observatory, Rostov-on-Don"},
{ "lng":  10.84098  , "lat": 46.241077, "name":"Dolomites Astronomical Observatory"},
{ "lng":  14.35759  , "lat": 40.618777, "name":"Osservatorio Astronomico Nastro Verde, Sorrento"},
{ "lng":  91.8425   , "lat": 56.084127, "name":"Badalozhnyj Observatory"},
{ "lng":   2.24372  , "lat": 41.445592, "name":"Badalona"},
{ "lng":   1.2408   , "lat": 38.891102, "name":"Observatorio Cala d'Hort, Ibiza"},
{ "lng":   2.7813   , "lat": 41.677592, "name":"Blanes"},
{ "lng":   8.7689   , "lat": 49.620548, "name":"Rimbach"},
{ "lng":  11.18331  , "lat": 43.232801, "name":"Montarrenti Observatory, Siena"},
{ "lng":  21.55558  , "lat": 43.140233, "name":"Astronomical Station Vidojevica"},
{ "lng":   1.05181  , "lat": 41.110418, "name":"Vinyols"},
{ "lng":  11.22621  , "lat": 44.243180, "name":"Montevenere Observatory, Monzuno"},
{ "lng":  13.60995  , "lat": 43.426292, "name":"Valdicerro Observatory, Loreto"},
{ "lng":  13.4064   , "lat": 42.334904, "name":"Bellavista Observatory, L'Aquila"},
{ "lng": 103.0670   , "lat": 51.810111, "name":"MASTER-II Observatory, Tunka"},
{ "lng":   5.71239  , "lat": 43.932050, "name":"SATINO Remote Observatory, Haute Provence"},
{ "lng":  13.8786   , "lat": 42.753689, "name":"OACL Observatory, Mosciano Sant Angelo"},
{ "lng":  57.97633  , "lat": 23.629468, "name":"Al-Fulaij Observatory, Oman"},
{ "lng":  11.1764   , "lat": 43.764918, "name":"Osservatorio Casellina, Scandicci"},
{ "lng":   2.89631  , "lat": 41.826669, "name":"Observatori Can Roig, Llagostera"},
{ "lng":  42.6536   , "lat": 43.740151, "name":"ASC-Kislovodsk Observatory"},
{ "lng":  23.93061  , "lat": 60.352767, "name":"Andean Northern Observatory, Nummi-Pusula"},
{ "lng":   2.05189  , "lat": 41.383634, "name":"Observatori Petit Sant Feliu"},
{ "lng":  10.58892  , "lat": 44.441106, "name":"Rantiga Osservatorio, Tincana"},
{ "lng":  38.8569   , "lat": 44.894146, "name":"Krasnodar"},
{ "lng":  42.50005  , "lat": 43.274569, "name":"ISON-Terskol Observatory"},
{ "lng":  12.77017  , "lat": 41.750270, "name":"Associazione Tuscolana di Astronomia, Domatore"},
{ "lng":   6.2094   , "lat": 51.142527, "name":"Wegberg"},
{ "lng":   8.9191   , "lat": 46.455115, "name":"Ghezz Observatory, Leontica"},
{ "lng":   5.6794   , "lat": 50.941601, "name":"Observatory Gromme, Maasmechelen"},
{ "lng":   8.90181  , "lat": 48.648915, "name":"Gaertringen"},
{ "lng":   5.62797  , "lat": 43.790819, "name":"Bastidan Observatory"},
{ "lng":  11.33806  , "lat": 46.422793, "name":"Filzi School Observatory, Laives"},
{ "lng":  11.56369  , "lat": 42.479972, "name":"Cat's Eye Observatory"},
{ "lng": 113.3231   , "lat": 23.143683, "name":"Nanchuan Observatory, Guangzhou"},
{ "lng":  11.31781  , "lat": 50.983394, "name":"Sternwarte F.Schiller-Gymnasium, Weimar"},
{ "lng": 113.96422  , "lat": 22.376619, "name":"Po Leung Kuk Observatory, Tuen Mun"},
{ "lng": 114.2200   , "lat": 22.474601, "name":"Hong Kong"},
{ "lng": 114.3580   , "lat": 30.521411, "name":"Mt. Guizi Observatory"},
{ "lng": 114.32300  , "lat": 22.408327, "name":"Hong Kong Space Museum Sai Kung iObservatory"},
{ "lng": 115.71311  , "lat":-31.355948, "name":"Zadko Observatory, Wallingup Plain"},
{ "lng": 115.8150   , "lat":-31.961553, "name":"Shenton Park"},
{ "lng": 115.81667  , "lat":-31.978893, "name":"UWA Observatory, Crawley"},
{ "lng":   0.51853  , "lat": 41.561741, "name":"OAIA, Alcarras"},
{ "lng": 117.08969  , "lat":-32.514144, "name":"LightBuckets Observatory, Pingelly"},
{ "lng": 117.08978  , "lat":-32.513139, "name":"Tzec Maun Observatory, Pingelly (before 2010)"},
{ "lng":   1.92131  , "lat": 43.807685, "name":"Peyrole Observatory, Peyrole"},
{ "lng":   3.80361  , "lat": 43.626682, "name":"Observatoire de Fontcaude, Juvignac"},
{ "lng":   2.18286  , "lat": 41.619802, "name":"Escaldarium Observatory,Caldes de Montbui"},
{ "lng": 118.4639   , "lat": 32.734366, "name":"Purple Mountain Observatory, XuYi Station"},
{ "lng":  11.08350  , "lat": 50.942811, "name":"Sternwarte Silbergraben, Erfurt"},
{ "lng":  10.09797  , "lat": 44.504353, "name":"Osservatorio Aldebaran, Rivalba"},
{ "lng": 119.59975  , "lat": 30.469432, "name":"JiangNanTianChi Observatory, Mt. Getianling"},
{ "lng": 120.6982   , "lat": 22.049959, "name":"Kenting Observatory, Checheng"},
{ "lng": 120.7839   , "lat": 21.950269, "name":"Kenting Observatory, Hengchun"},
{ "lng": 120.8736   , "lat": 23.468580, "name":"Lulin Observatory"},
{ "lng": 120.8897   , "lat": 23.487263, "name":"Tataka, Mt. Yu-Shan National Park"},
{ "lng": 120.87325  , "lat": 23.468778, "name":"Lulin Widefield Telescope, Mt. Lulin"},
{ "lng":   8.43764  , "lat": 44.912897, "name":"Tecnosky Astropark, Felizzano"},
{ "lng": 122.04961  , "lat": 37.535927, "name":"Shandong University Observatory, Weihai"},
{ "lng":  13.33772  , "lat": 41.653222, "name":"Frosinone"},
{ "lng":  10.71704  , "lat": 43.429224, "name":"Osservatorio Astronomico Orciatico"},
{ "lng":  11.19084  , "lat": 43.747676, "name":"Piero Angela Observatory, Scandicci"},
{ "lng":   7.77039  , "lat": 45.044600, "name":"45th Parallel Observatory, Pino Torinese"},
{ "lng": 124.13928  , "lat": 24.372862, "name":"Ishigakijima Astronomical Observatory"},
{ "lng":  21.49325  , "lat": 50.334547, "name":"Kamyk, Trzesn"},
{ "lng":   9.90265  , "lat": 47.906000, "name":"Observatory Bad Wurzach"},
{ "lng":  11.56366  , "lat": 42.479972, "name":"BigBang Observatory, Manciano"},
{ "lng":   7.26381  , "lat": 49.330851, "name":"Niederbexbach Observatory"},
{ "lng":   0.79444  , "lat": 40.876687, "name":"L'Ametlla de Mar"},
{ "lng":   5.21519  , "lat": 44.039478, "name":"Vaucluse Observatoire Celeste, Blauvac"},
{ "lng":   1.94844  , "lat": 44.082999, "name":"Plateau Astronomique La Couronne"},
{ "lng":   9.79750  , "lat": 45.098032, "name":"ULU Observatory, Caselle Landi"},
{ "lng": 127.4820   , "lat": 50.318536, "name":"ISON-Blagoveschensk Observatory"},
{ "lng": 127.4830   , "lat": 50.318902, "name":"MASTER-II Observatory, Blagoveshchensk"},
{ "lng": 127.9747   , "lat": 37.372831, "name":"Kangwon Science High School Observatory, Ksho"},
{ "lng":  11.67408  , "lat": 45.607803, "name":"Osservatorio Sideris Oculus, San Pietro in Gu"},
{ "lng": 128.88744  , "lat": 35.252875, "name":"Gimhae Astronomical Observatory, Uhbang-dong"},
{ "lng": 129.02500  , "lat": 35.165619, "name":"KSA SEM Observatory, Danggam-dong"},
{ "lng":   7.15617  , "lat": 43.747770, "name":"MARIAMIR, Saint-Jeannet"},
{ "lng":  13.55146  , "lat": 46.183670, "name":"Sparky's Stars, Masseris"},
{ "lng": 134.9131   , "lat": 34.327701, "name":"Suntopia Marina, Sumoto"},
{ "lng": 130.4494   , "lat": 33.289452, "name":"Miyaki-Argenteus"},
{ "lng":  10.46138  , "lat": 44.081326, "name":"G. Pascoli Observatory, Barga (since June 2023)"},
{ "lng":  14.10967  , "lat": 42.305528, "name":"Fucama, Casalincontrada"},
{ "lng":  11.53480  , "lat": 45.497415, "name":"G. Beltrame, Arcugnano Vicenza"},
{ "lng":   9.14839  , "lat": 45.376776, "name":"Civico Osservatorio Astronomico di Rozzano"},
{ "lng":  37.62472  , "lat": 54.209185, "name":"Tula Rooftop Observatory, Tula"},
{ "lng":  11.73622  , "lat": 45.465410, "name":"Osservatorio Galileo, Padova"},
{ "lng":   9.97013  , "lat": 49.782617, "name":"JMU Space-Observatory"},
{ "lng": 133.4686   , "lat": 33.467927, "name":"Tosa"},
{ "lng":  15.89225  , "lat": 46.822401, "name":"ObservaSTYRium, Stainz bei Straden"},
{ "lng":  16.36131  , "lat":-23.236603, "name":"WAA Remote Observatory, Hakos"},
{ "lng":  16.36139  , "lat":-23.236611, "name":"SNX-NET, Hakos"},
{ "lng": 134.6819   , "lat": 33.948936, "name":"Nakagawa"},
{ "lng":  16.95608  , "lat": 39.488772, "name":"Cariati"},
{ "lng":   2.00702  , "lat": 41.564599, "name":"AAT-Terrassa, Terrassa"},
{ "lng":  10.71736  , "lat": 43.429020, "name":"TD-TRO (Tuscany Remote Observatory)"},
{ "lng": 136.13281  , "lat": 34.768568, "name":"Iga-Ueno"},
{ "lng": 138.63092  , "lat":-34.884487, "name":"YSVP Observatory, Vale Park"},
{ "lng": 138.9728   , "lat": 36.596424, "name":"Gumma Astronomical Observatory"},
{ "lng": 138.2239   , "lat": 36.669278, "name":"Nagano"},
{ "lng": 137.6317   , "lat":-33.931075, "name":"Wallaroo"},
{ "lng": 138.4681   , "lat": 36.496336, "name":"Miwa"},
{ "lng": 138.5086   , "lat":-35.086370, "name":"Hallet Cove"},
{ "lng": 138.6597   , "lat":-34.820641, "name":"Ingle Farm"},
{ "lng": 138.6407   , "lat":-33.918940, "name":"Penwortham"},
{ "lng": 138.5500   , "lat":-34.926094, "name":"Brooklyn Park"},
{ "lng": 139.3142   , "lat": 35.369663, "name":"Hiratsuka"},
{ "lng": 140.3383   , "lat": 38.184585, "name":"Yamagata"},